{
  "type": "FeatureCollection",
  "generator": "overpass-turbo",
  "copyright": "The data included in this document is from www.openstreetmap.org. The data is made available under ODbL.",
  "timestamp": "2025-05-01T13:18:41Z",
  "features": [
    {
      "type": "Feature",
      "properties": {
        "@id": "way/23565362",
        "addr:housenumber": "71",
        "addr:street": "вулиця Героїв Майдану",
        "building": "commercial",
        "building:levels": "3",
        "name": "Майдан",
        "name:uk": "Майдан",
        "opening_hours": "PH,Mo-Su 00:00-24:00",
        "shop": "mall",
        "wheelchair": "yes",
        "@geometry": "center"
      },
      "geometry": {
        "type": "Point",
        "coordinates": [
          25.9279332,
          48.2677633
        ]
      },
      "id": "way/23565362"
    },
    {
      "type": "Feature",
      "properties": {
        "@id": "way/25410539",
        "addr:housenumber": "219",
        "addr:street": "Головна вулиця",
        "amenity": "bus_station",
        "building": "yes",
        "building:levels": "2",
        "name": "Автовокзал \"Чернівці\" (АС-1)",
        "name:en": "Central Bus Station",
        "name:uk": "Автовокзал \"Чернівці\" (АС-1)",
        "opening_hours": "06:00-22:00",
        "wheelchair": "yes",
        "@geometry": "center"
      },
      "geometry": {
        "type": "Point",
        "coordinates": [
          25.9520513,
          48.2649377
        ]
      },
      "id": "way/25410539"
    },
    {
      "type": "Feature",
      "properties": {
        "@id": "way/26743065",
        "addr:housenumber": "109",
        "addr:street": "проспект Незалежності",
        "amenity": "hospital",
        "building": "yes",
        "name": "Міська дитяча поліклініка",
        "name:uk": "Міська дитяча поліклініка",
        "phone": "+380 3722 41 319",
        "@geometry": "center"
      },
      "geometry": {
        "type": "Point",
        "coordinates": [
          25.9429686,
          48.2674459
        ]
      },
      "id": "way/26743065"
    },
    {
      "type": "Feature",
      "properties": {
        "@id": "way/27291224",
        "addr:housenumber": "192В",
        "addr:street": "вулиця Ярослава Мудрого",
        "brand": "АТБ-Маркет",
        "brand:en": "ATB-Market",
        "brand:uk": "АТБ-Маркет",
        "brand:wikidata": "Q4054103",
        "brand:wikipedia": "uk:АТБ-Маркет",
        "building": "yes",
        "building:levels": "2",
        "name": "АТБ-Маркет",
        "name:en": "ATB-Market",
        "name:uk": "АТБ-Маркет",
        "opening_hours": "24/7",
        "shop": "supermarket",
        "@geometry": "center"
      },
      "geometry": {
        "type": "Point",
        "coordinates": [
          25.9555059,
          48.3452532
        ]
      },
      "id": "way/27291224"
    },
    {
      "type": "Feature",
      "properties": {
        "@id": "way/31852549",
        "leisure": "pitch",
        "@geometry": "center"
      },
      "geometry": {
        "type": "Point",
        "coordinates": [
          25.9436837,
          48.2751648
        ]
      },
      "id": "way/31852549"
    },
    {
      "type": "Feature",
      "properties": {
        "@id": "way/31954382",
        "addr:street": "Головна вулиця",
        "dog": "no",
        "leisure": "park",
        "name": "ПКіВ ім. Т.Г.Шевченка",
        "name:en": "Central Park",
        "name:ru": "ПКиО им. Т.Г.Шевченко",
        "name:uk": "ПКіВ ім. Т.Г.Шевченка",
        "smoking": "no",
        "@geometry": "center"
      },
      "geometry": {
        "type": "Point",
        "coordinates": [
          25.9391018,
          48.2792891
        ]
      },
      "id": "way/31954382"
    },
    {
      "type": "Feature",
      "properties": {
        "@id": "way/31999672",
        "boundary": "protected_area",
        "description": "Ботанічна пам'ятка природи місцевого значення",
        "leisure": "park",
        "name": "Ботанічна пам'ятка природи «Сквер з різновидностями рідкісних дерев»",
        "name:uk": "Ботанічна пам'ятка природи «Сквер з різновидностями рідкісних дерев»",
        "operator": "Департамент ЖКГ м. Чернівці",
        "protect_class": "5",
        "protection_status": "local",
        "protection_title": "park_monument_of_landscape_art",
        "start_date": "17.03.1992",
        "wikidata": "Q60174665",
        "wikipedia": "uk:Сквер з різновидностями рідкісних дерев (Чернівці, на розі вулиць Університетської та Коцюбинського)",
        "@geometry": "center"
      },
      "geometry": {
        "type": "Point",
        "coordinates": [
          25.925024,
          48.2958232
        ]
      },
      "id": "way/31999672"
    },
    {
      "type": "Feature",
      "properties": {
        "@id": "way/32841156",
        "leisure": "pitch",
        "@geometry": "center"
      },
      "geometry": {
        "type": "Point",
        "coordinates": [
          25.9379024,
          48.2933683
        ]
      },
      "id": "way/32841156"
    },
    {
      "type": "Feature",
      "properties": {
        "@id": "way/32872856",
        "addr:housenumber": "19-В",
        "building": "retail",
        "building:levels": "3",
        "name": "ТЦ Формаркет",
        "name:uk": "ТЦ Формаркет",
        "note": "Shopping Centre",
        "shop": "mall",
        "wheelchair": "yes",
        "@geometry": "center"
      },
      "geometry": {
        "type": "Point",
        "coordinates": [
          25.9401089,
          48.2666361
        ]
      },
      "id": "way/32872856"
    },
    {
      "type": "Feature",
      "properties": {
        "@id": "way/32874492",
        "addr:street": "вулиця Федора Полєтаєва",
        "building": "yes",
        "building:levels": "1",
        "name": "Нива",
        "name:uk": "Нива",
        "opening_hours": "Mo-Su 08:00-22:00",
        "shop": "supermarket",
        "@geometry": "center"
      },
      "geometry": {
        "type": "Point",
        "coordinates": [
          25.9451913,
          48.2643697
        ]
      },
      "id": "way/32874492"
    },
    {
      "type": "Feature",
      "properties": {
        "@id": "way/32956038",
        "addr:housenumber": "28",
        "addr:street": "Університетська вулиця",
        "amenity": "university",
        "building": "yes",
        "name": "ЧНУ, корпус №1 (ФПМ, ФКН)",
        "name:uk": "ЧНУ, корпус №1 (ФПМ, ФКН)",
        "@geometry": "center"
      },
      "geometry": {
        "type": "Point",
        "coordinates": [
          25.9296079,
          48.2933945
        ]
      },
      "id": "way/32956038"
    },
    {
      "type": "Feature",
      "properties": {
        "@id": "way/32966835",
        "leisure": "park",
        "@geometry": "center"
      },
      "geometry": {
        "type": "Point",
        "coordinates": [
          25.9901238,
          48.2901082
        ]
      },
      "id": "way/32966835"
    },
    {
      "type": "Feature",
      "properties": {
        "@id": "way/35902218",
        "barrier": "fence",
        "leisure": "pitch",
        "sport": "soccer",
        "@geometry": "center"
      },
      "geometry": {
        "type": "Point",
        "coordinates": [
          25.9372907,
          48.2713065
        ]
      },
      "id": "way/35902218"
    },
    {
      "type": "Feature",
      "properties": {
        "@id": "way/36670037",
        "barrier": "fence",
        "leisure": "pitch",
        "sport": "tennis",
        "@geometry": "center"
      },
      "geometry": {
        "type": "Point",
        "coordinates": [
          25.9397174,
          48.2878234
        ]
      },
      "id": "way/36670037"
    },
    {
      "type": "Feature",
      "properties": {
        "@id": "way/36670038",
        "barrier": "fence",
        "leisure": "pitch",
        "sport": "tennis",
        "@geometry": "center"
      },
      "geometry": {
        "type": "Point",
        "coordinates": [
          25.9399559,
          48.2876942
        ]
      },
      "id": "way/36670038"
    },
    {
      "type": "Feature",
      "properties": {
        "@id": "way/36976976",
        "amenity": "hospital",
        "building": "yes",
        "healthcare": "hospital",
        "@geometry": "center"
      },
      "geometry": {
        "type": "Point",
        "coordinates": [
          25.976668,
          48.2829685
        ]
      },
      "id": "way/36976976"
    },
    {
      "type": "Feature",
      "properties": {
        "@id": "way/37185179",
        "leisure": "pitch",
        "sport": "soccer",
        "@geometry": "center"
      },
      "geometry": {
        "type": "Point",
        "coordinates": [
          25.9680022,
          48.2883507
        ]
      },
      "id": "way/37185179"
    },
    {
      "type": "Feature",
      "properties": {
        "@id": "way/37185181",
        "building": "yes",
        "name": "Продуктовий",
        "name:uk": "Продуктовий",
        "opening_hours": "Mo-Su 07:00-03:00",
        "shop": "convenience",
        "@geometry": "center"
      },
      "geometry": {
        "type": "Point",
        "coordinates": [
          25.9727947,
          48.2833674
        ]
      },
      "id": "way/37185181"
    },
    {
      "type": "Feature",
      "properties": {
        "@id": "way/37185183",
        "leisure": "pitch",
        "@geometry": "center"
      },
      "geometry": {
        "type": "Point",
        "coordinates": [
          25.9724791,
          48.2813493
        ]
      },
      "id": "way/37185183"
    },
    {
      "type": "Feature",
      "properties": {
        "@id": "way/37185185",
        "leisure": "pitch",
        "@geometry": "center"
      },
      "geometry": {
        "type": "Point",
        "coordinates": [
          25.9682033,
          48.2818995
        ]
      },
      "id": "way/37185185"
    },
    {
      "type": "Feature",
      "properties": {
        "@id": "way/37226938",
        "leisure": "pitch",
        "@geometry": "center"
      },
      "geometry": {
        "type": "Point",
        "coordinates": [
          25.9308713,
          48.2963759
        ]
      },
      "id": "way/37226938"
    },
    {
      "type": "Feature",
      "properties": {
        "@id": "way/37254314",
        "addr:housenumber": "228-А",
        "amenity": "school",
        "building": "yes",
        "name": "Школа №42",
        "name:uk": "Школа №42",
        "@geometry": "center"
      },
      "geometry": {
        "type": "Point",
        "coordinates": [
          25.9790295,
          48.2795811
        ]
      },
      "id": "way/37254314"
    },
    {
      "type": "Feature",
      "properties": {
        "@id": "way/37254345",
        "leisure": "pitch",
        "@geometry": "center"
      },
      "geometry": {
        "type": "Point",
        "coordinates": [
          25.9738397,
          48.2805863
        ]
      },
      "id": "way/37254345"
    },
    {
      "type": "Feature",
      "properties": {
        "@id": "way/37254346",
        "leisure": "pitch",
        "@geometry": "center"
      },
      "geometry": {
        "type": "Point",
        "coordinates": [
          25.9779017,
          48.2782931
        ]
      },
      "id": "way/37254346"
    },
    {
      "type": "Feature",
      "properties": {
        "@id": "way/37254748",
        "leisure": "pitch",
        "sport": "soccer",
        "@geometry": "center"
      },
      "geometry": {
        "type": "Point",
        "coordinates": [
          25.9581979,
          48.2562153
        ]
      },
      "id": "way/37254748"
    },
    {
      "type": "Feature",
      "properties": {
        "@id": "way/37255607",
        "leisure": "pitch",
        "@geometry": "center"
      },
      "geometry": {
        "type": "Point",
        "coordinates": [
          25.9780176,
          48.2786216
        ]
      },
      "id": "way/37255607"
    },
    {
      "type": "Feature",
      "properties": {
        "@id": "way/37386804",
        "leisure": "pitch",
        "@geometry": "center"
      },
      "geometry": {
        "type": "Point",
        "coordinates": [
          25.9960984,
          48.2753014
        ]
      },
      "id": "way/37386804"
    },
    {
      "type": "Feature",
      "properties": {
        "@id": "way/37386811",
        "leisure": "pitch",
        "@geometry": "center"
      },
      "geometry": {
        "type": "Point",
        "coordinates": [
          25.9965864,
          48.2755346
        ]
      },
      "id": "way/37386811"
    },
    {
      "type": "Feature",
      "properties": {
        "@id": "way/37386813",
        "leisure": "pitch",
        "@geometry": "center"
      },
      "geometry": {
        "type": "Point",
        "coordinates": [
          25.9969884,
          48.2752972
        ]
      },
      "id": "way/37386813"
    },
    {
      "type": "Feature",
      "properties": {
        "@id": "way/38808503",
        "leisure": "park",
        "@geometry": "center"
      },
      "geometry": {
        "type": "Point",
        "coordinates": [
          25.9335977,
          48.2946824
        ]
      },
      "id": "way/38808503"
    },
    {
      "type": "Feature",
      "properties": {
        "@id": "way/38808574",
        "leisure": "park",
        "name": "Кнаус",
        "name:de": "Knaus",
        "name:uk": "Кнаус",
        "@geometry": "center"
      },
      "geometry": {
        "type": "Point",
        "coordinates": [
          25.9354842,
          48.2933863
        ]
      },
      "id": "way/38808574"
    },
    {
      "type": "Feature",
      "properties": {
        "@id": "way/53261049",
        "leisure": "pitch",
        "lit": "no",
        "sport": "soccer",
        "surface": "grass",
        "@geometry": "center"
      },
      "geometry": {
        "type": "Point",
        "coordinates": [
          25.9366875,
          48.2652708
        ]
      },
      "id": "way/53261049"
    },
    {
      "type": "Feature",
      "properties": {
        "@id": "way/57813489",
        "leisure": "pitch",
        "lit": "no",
        "sport": "basketball",
        "surface": "asphalt",
        "@geometry": "center"
      },
      "geometry": {
        "type": "Point",
        "coordinates": [
          25.9379802,
          48.2565346
        ]
      },
      "id": "way/57813489"
    },
    {
      "type": "Feature",
      "properties": {
        "@id": "way/57821272",
        "addr:housenumber": "265-А",
        "addr:street": "Головна вулиця",
        "building": "yes",
        "building:levels": "3",
        "name": "DEPOt",
        "name:en": "Depot",
        "name:ru": "Depot",
        "name:uk": "Depot",
        "shop": "mall",
        "wheelchair": "yes",
        "@geometry": "center"
      },
      "geometry": {
        "type": "Point",
        "coordinates": [
          25.9570056,
          48.2587791
        ]
      },
      "id": "way/57821272"
    },
    {
      "type": "Feature",
      "properties": {
        "@id": "way/57830063",
        "amenity": "kindergarten",
        "barrier": "fence",
        "name": "Дитячий навчальний заклад №10",
        "name:uk": "Дитячий навчальний заклад №10",
        "official_name": "Дошкільний навчальний заклад №10 \"Попелюшка\" комбінованого типу",
        "@geometry": "center"
      },
      "geometry": {
        "type": "Point",
        "coordinates": [
          25.9526297,
          48.2577253
        ]
      },
      "id": "way/57830063"
    },
    {
      "type": "Feature",
      "properties": {
        "@id": "way/57850487",
        "addr:housenumber": "25",
        "addr:street": "вулиця Лесі Українки",
        "amenity": "university",
        "building": "yes",
        "note": "Fixed building geometry by bullethimself",
        "@geometry": "center"
      },
      "geometry": {
        "type": "Point",
        "coordinates": [
          25.9275596,
          48.2928744
        ]
      },
      "id": "way/57850487"
    },
    {
      "type": "Feature",
      "properties": {
        "@id": "way/59691901",
        "amenity": "kindergarten",
        "barrier": "fence",
        "name": "Дошкільний навчальний заклад №38 комбінованого типу",
        "name:uk": "Дошкільний навчальний заклад №38 комбінованого типу",
        "short_name": "ДНЗ №38",
        "@geometry": "center"
      },
      "geometry": {
        "type": "Point",
        "coordinates": [
          25.9549083,
          48.2554961
        ]
      },
      "id": "way/59691901"
    },
    {
      "type": "Feature",
      "properties": {
        "@id": "way/59691902",
        "amenity": "kindergarten",
        "barrier": "wall",
        "name": "Дошкільний навчальний заклад №30 комбінованого типу",
        "name:uk": "Дошкільний навчальний заклад №30 комбінованого типу",
        "@geometry": "center"
      },
      "geometry": {
        "type": "Point",
        "coordinates": [
          25.9541015,
          48.2539917
        ]
      },
      "id": "way/59691902"
    },
    {
      "type": "Feature",
      "properties": {
        "@id": "way/70191757",
        "addr:housenumber": "2",
        "addr:street": "вулиця Карбулицького",
        "amenity": "school",
        "building": "school",
        "email": "cvznz-34@meta.ua",
        "isced:level": "1;2",
        "name": "Гімназія №6 Берегиня",
        "name:uk": "Гімназія №6 Берегиня",
        "official_name": "Чернівецька гімназія №6 Берегиня",
        "operator": "Чернівецька міська рада",
        "phone": "+380 372 56 0181;+380 372 56 0281",
        "website": "http://nvk-berehynya.cv.ua/",
        "@geometry": "center"
      },
      "geometry": {
        "type": "Point",
        "coordinates": [
          25.9473893,
          48.341829
        ]
      },
      "id": "way/70191757"
    },
    {
      "type": "Feature",
      "properties": {
        "@id": "way/70216497",
        "leisure": "park",
        "@geometry": "center"
      },
      "geometry": {
        "type": "Point",
        "coordinates": [
          25.959208,
          48.3489941
        ]
      },
      "id": "way/70216497"
    },
    {
      "type": "Feature",
      "properties": {
        "@id": "way/74858610",
        "addr:housenumber": "1",
        "addr:street": "Фізкультурна вулиця",
        "building": "yes",
        "building:levels": "1",
        "opening_hours": "Mo-Su 08:00-22:00",
        "shop": "convenience",
        "@geometry": "center"
      },
      "geometry": {
        "type": "Point",
        "coordinates": [
          25.9483773,
          48.2677949
        ]
      },
      "id": "way/74858610"
    },
    {
      "type": "Feature",
      "properties": {
        "@id": "way/74860584",
        "leisure": "pitch",
        "@geometry": "center"
      },
      "geometry": {
        "type": "Point",
        "coordinates": [
          25.9430252,
          48.2761383
        ]
      },
      "id": "way/74860584"
    },
    {
      "type": "Feature",
      "properties": {
        "@id": "way/75806664",
        "building": "yes",
        "leisure": "sports_centre",
        "name": "Спорт зал Чернівецького транспортного коледжу",
        "name:uk": "Спорт зал Чернівецького транспортного коледжу",
        "@geometry": "center"
      },
      "geometry": {
        "type": "Point",
        "coordinates": [
          25.9266865,
          48.298168
        ]
      },
      "id": "way/75806664"
    },
    {
      "type": "Feature",
      "properties": {
        "@id": "way/79766114",
        "addr:housenumber": "5-А",
        "amenity": "hospital",
        "building": "yes",
        "building:levels": "6",
        "name": "Діагностичний центр",
        "name:ru": "Диагностический центр",
        "name:uk": "Діагностичний центр",
        "official_name": "Чернівецький обласний медичний діагностичний центр",
        "website": "http://www.omdc.cv.ua",
        "wheelchair": "yes",
        "@geometry": "center"
      },
      "geometry": {
        "type": "Point",
        "coordinates": [
          25.9408689,
          48.2707741
        ]
      },
      "id": "way/79766114"
    },
    {
      "type": "Feature",
      "properties": {
        "@id": "way/79785938",
        "leisure": "pitch",
        "sport": "soccer",
        "@geometry": "center"
      },
      "geometry": {
        "type": "Point",
        "coordinates": [
          25.9718663,
          48.2571292
        ]
      },
      "id": "way/79785938"
    },
    {
      "type": "Feature",
      "properties": {
        "@id": "way/80786467",
        "access": "no",
        "amenity": "parking",
        "barrier": "wall",
        "@geometry": "center"
      },
      "geometry": {
        "type": "Point",
        "coordinates": [
          25.9603987,
          48.2907945
        ]
      },
      "id": "way/80786467"
    },
    {
      "type": "Feature",
      "properties": {
        "@id": "way/80899893",
        "addr:housenumber": "1",
        "amenity": "hospital",
        "building": "yes",
        "name": "Міський протитуберкульозний диспансер",
        "name:ru": "Городской противотуберкулезный диспансер",
        "name:uk": "Міський протитуберкульозний диспансер",
        "@geometry": "center"
      },
      "geometry": {
        "type": "Point",
        "coordinates": [
          25.9392215,
          48.2894247
        ]
      },
      "id": "way/80899893"
    },
    {
      "type": "Feature",
      "properties": {
        "@id": "way/80899899",
        "leisure": "park",
        "@geometry": "center"
      },
      "geometry": {
        "type": "Point",
        "coordinates": [
          25.9316322,
          48.2892119
        ]
      },
      "id": "way/80899899"
    },
    {
      "type": "Feature",
      "properties": {
        "@id": "way/81016158",
        "addr:housenumber": "11",
        "addr:street": "вулиця Лесі Українки",
        "amenity": "hospital",
        "building": "yes",
        "name": "Міська поліклініка №2",
        "name:ru": "Городская поликлиника №2",
        "name:uk": "Міська поліклініка №2",
        "phone": "+380 372 52 7122",
        "@geometry": "center"
      },
      "geometry": {
        "type": "Point",
        "coordinates": [
          25.9295974,
          48.2909942
        ]
      },
      "id": "way/81016158"
    },
    {
      "type": "Feature",
      "properties": {
        "@id": "way/81016169",
        "leisure": "pitch",
        "sport": "soccer",
        "@geometry": "center"
      },
      "geometry": {
        "type": "Point",
        "coordinates": [
          25.94259,
          48.2855162
        ]
      },
      "id": "way/81016169"
    },
    {
      "type": "Feature",
      "properties": {
        "@id": "way/81016174",
        "addr:housenumber": "129",
        "amenity": "hospital",
        "building": "yes",
        "name": "Міський клінічний пологовий будинок №1",
        "name:uk": "Міський клінічний пологовий будинок №1",
        "@geometry": "center"
      },
      "geometry": {
        "type": "Point",
        "coordinates": [
          25.9403651,
          48.2815734
        ]
      },
      "id": "way/81016174"
    },
    {
      "type": "Feature",
      "properties": {
        "@id": "way/81016345",
        "barrier": "fence",
        "leisure": "pitch",
        "sport": "tennis",
        "@geometry": "center"
      },
      "geometry": {
        "type": "Point",
        "coordinates": [
          25.9394678,
          48.2876044
        ]
      },
      "id": "way/81016345"
    },
    {
      "type": "Feature",
      "properties": {
        "@id": "way/81016418",
        "amenity": "hospital",
        "building": "yes",
        "building:levels": "4",
        "@geometry": "center"
      },
      "geometry": {
        "type": "Point",
        "coordinates": [
          25.946402,
          48.2806966
        ]
      },
      "id": "way/81016418"
    },
    {
      "type": "Feature",
      "properties": {
        "@id": "way/81973765",
        "access": "yes",
        "amenity": "parking",
        "parking": "surface",
        "@geometry": "center"
      },
      "geometry": {
        "type": "Point",
        "coordinates": [
          25.9499224,
          48.2889345
        ]
      },
      "id": "way/81973765"
    },
    {
      "type": "Feature",
      "properties": {
        "@id": "way/85225722",
        "addr:housenumber": "6",
        "amenity": "school",
        "building": "yes",
        "name": "Спеціалізована школа №3",
        "name:uk": "Спеціалізована школа №3",
        "@geometry": "center"
      },
      "geometry": {
        "type": "Point",
        "coordinates": [
          25.933635,
          48.2831183
        ]
      },
      "id": "way/85225722"
    },
    {
      "type": "Feature",
      "properties": {
        "@id": "way/85353870",
        "amenity": "school",
        "barrier": "fence",
        "name": "Ліцей №4",
        "name:ru": "Лицей №4",
        "name:uk": "Ліцей №4",
        "official_name": "Чернівецький багатопрофільний ліцей №4",
        "old_name": "Школа №18",
        "@geometry": "center"
      },
      "geometry": {
        "type": "Point",
        "coordinates": [
          25.9372995,
          48.2651615
        ]
      },
      "id": "way/85353870"
    },
    {
      "type": "Feature",
      "properties": {
        "@id": "way/85353874",
        "amenity": "kindergarten",
        "barrier": "fence",
        "name": "Дошкільний навчальний заклад №41 Центр розвитку дитини",
        "name:ru": "Дошкольное учебное заведение №41 Центр развития ребенка",
        "name:uk": "Дошкільний навчальний заклад №41 Центр розвитку дитини",
        "@geometry": "center"
      },
      "geometry": {
        "type": "Point",
        "coordinates": [
          25.9433926,
          48.2629571
        ]
      },
      "id": "way/85353874"
    },
    {
      "type": "Feature",
      "properties": {
        "@id": "way/85353882",
        "amenity": "kindergarten",
        "barrier": "fence",
        "name": "Дошкільний навчальний заклад №27",
        "name:uk": "Дошкільний навчальний заклад №27",
        "@geometry": "center"
      },
      "geometry": {
        "type": "Point",
        "coordinates": [
          25.9353225,
          48.2658662
        ]
      },
      "id": "way/85353882"
    },
    {
      "type": "Feature",
      "properties": {
        "@id": "way/85734087",
        "leisure": "pitch",
        "sport": "tennis",
        "@geometry": "center"
      },
      "geometry": {
        "type": "Point",
        "coordinates": [
          25.9408614,
          48.275068
        ]
      },
      "id": "way/85734087"
    },
    {
      "type": "Feature",
      "properties": {
        "@id": "way/86152798",
        "amenity": "parking",
        "wheelchair": "yes",
        "@geometry": "center"
      },
      "geometry": {
        "type": "Point",
        "coordinates": [
          25.9562759,
          48.2584887
        ]
      },
      "id": "way/86152798"
    },
    {
      "type": "Feature",
      "properties": {
        "@id": "way/86467350",
        "leisure": "pitch",
        "sport": "tennis",
        "@geometry": "center"
      },
      "geometry": {
        "type": "Point",
        "coordinates": [
          25.9401693,
          48.2762843
        ]
      },
      "id": "way/86467350"
    },
    {
      "type": "Feature",
      "properties": {
        "@id": "way/86467366",
        "leisure": "pitch",
        "sport": "tennis",
        "@geometry": "center"
      },
      "geometry": {
        "type": "Point",
        "coordinates": [
          25.9393424,
          48.2760099
        ]
      },
      "id": "way/86467366"
    },
    {
      "type": "Feature",
      "properties": {
        "@id": "way/86467368",
        "leisure": "pitch",
        "sport": "tennis",
        "@geometry": "center"
      },
      "geometry": {
        "type": "Point",
        "coordinates": [
          25.939613,
          48.2761035
        ]
      },
      "id": "way/86467368"
    },
    {
      "type": "Feature",
      "properties": {
        "@id": "way/86467370",
        "leisure": "pitch",
        "sport": "tennis",
        "@geometry": "center"
      },
      "geometry": {
        "type": "Point",
        "coordinates": [
          25.9398947,
          48.2761917
        ]
      },
      "id": "way/86467370"
    },
    {
      "type": "Feature",
      "properties": {
        "@id": "way/87118216",
        "addr:housenumber": "3-А",
        "building": "yes",
        "shop": "mall",
        "@geometry": "center"
      },
      "geometry": {
        "type": "Point",
        "coordinates": [
          25.9562311,
          48.2606767
        ]
      },
      "id": "way/87118216"
    },
    {
      "type": "Feature",
      "properties": {
        "@id": "way/87444393",
        "leisure": "pitch",
        "@geometry": "center"
      },
      "geometry": {
        "type": "Point",
        "coordinates": [
          25.9351839,
          48.2716969
        ]
      },
      "id": "way/87444393"
    },
    {
      "type": "Feature",
      "properties": {
        "@id": "way/87444425",
        "access": "yes",
        "amenity": "parking",
        "fee": "no",
        "parking": "surface",
        "@geometry": "center"
      },
      "geometry": {
        "type": "Point",
        "coordinates": [
          25.9280124,
          48.2699451
        ]
      },
      "id": "way/87444425"
    },
    {
      "type": "Feature",
      "properties": {
        "@id": "way/87444430",
        "access": "yes",
        "amenity": "parking",
        "fee": "no",
        "parking": "surface",
        "wheelchair": "yes",
        "@geometry": "center"
      },
      "geometry": {
        "type": "Point",
        "coordinates": [
          25.9281387,
          48.2683952
        ]
      },
      "id": "way/87444430"
    },
    {
      "type": "Feature",
      "properties": {
        "@id": "way/87444441",
        "amenity": "university",
        "building": "yes",
        "name": "15 корпус ЧНУ, військова кафедра",
        "name:uk": "15 корпус ЧНУ, військова кафедра",
        "@geometry": "center"
      },
      "geometry": {
        "type": "Point",
        "coordinates": [
          25.9319315,
          48.2802214
        ]
      },
      "id": "way/87444441"
    },
    {
      "type": "Feature",
      "properties": {
        "@id": "way/87444477",
        "leisure": "pitch",
        "sport": "soccer",
        "@geometry": "center"
      },
      "geometry": {
        "type": "Point",
        "coordinates": [
          25.9229834,
          48.2732521
        ]
      },
      "id": "way/87444477"
    },
    {
      "type": "Feature",
      "properties": {
        "@id": "way/87444546",
        "leisure": "pitch",
        "sport": "soccer",
        "@geometry": "center"
      },
      "geometry": {
        "type": "Point",
        "coordinates": [
          25.9425094,
          48.2696828
        ]
      },
      "id": "way/87444546"
    },
    {
      "type": "Feature",
      "properties": {
        "@id": "way/87497267",
        "leisure": "pitch",
        "@geometry": "center"
      },
      "geometry": {
        "type": "Point",
        "coordinates": [
          25.9679171,
          48.3240745
        ]
      },
      "id": "way/87497267"
    },
    {
      "type": "Feature",
      "properties": {
        "@id": "way/87499755",
        "leisure": "pitch",
        "@geometry": "center"
      },
      "geometry": {
        "type": "Point",
        "coordinates": [
          25.9683213,
          48.3242562
        ]
      },
      "id": "way/87499755"
    },
    {
      "type": "Feature",
      "properties": {
        "@id": "way/87535296",
        "addr:housenumber": "21-Б",
        "amenity": "hospital",
        "building": "yes",
        "email": "vash.zir@gmail.com",
        "name": "Мікрохірургія ока Ваш Зір",
        "name:uk": "Мікрохірургія ока Ваш Зір",
        "phone": "+380 372 58 3333",
        "website": "https://www.vashzir.com/",
        "@geometry": "center"
      },
      "geometry": {
        "type": "Point",
        "coordinates": [
          25.9310993,
          48.2999865
        ]
      },
      "id": "way/87535296"
    },
    {
      "type": "Feature",
      "properties": {
        "@id": "way/87634425",
        "access": "permissive",
        "amenity": "parking",
        "@geometry": "center"
      },
      "geometry": {
        "type": "Point",
        "coordinates": [
          25.9569635,
          48.3222497
        ]
      },
      "id": "way/87634425"
    },
    {
      "type": "Feature",
      "properties": {
        "@id": "way/88266161",
        "access": "permissive",
        "amenity": "parking",
        "capacity:disabled": "yes",
        "fee": "no",
        "parking": "surface",
        "wheelchair": "yes",
        "@geometry": "center"
      },
      "geometry": {
        "type": "Point",
        "coordinates": [
          25.9379728,
          48.3179673
        ]
      },
      "id": "way/88266161"
    },
    {
      "type": "Feature",
      "properties": {
        "@id": "way/88266163",
        "access": "permissive",
        "amenity": "parking",
        "@geometry": "center"
      },
      "geometry": {
        "type": "Point",
        "coordinates": [
          25.9384655,
          48.3195695
        ]
      },
      "id": "way/88266163"
    },
    {
      "type": "Feature",
      "properties": {
        "@id": "way/88309507",
        "access": "yes",
        "amenity": "parking",
        "barrier": "fence",
        "@geometry": "center"
      },
      "geometry": {
        "type": "Point",
        "coordinates": [
          25.9275249,
          48.2660812
        ]
      },
      "id": "way/88309507"
    },
    {
      "type": "Feature",
      "properties": {
        "@id": "way/88496798",
        "leisure": "pitch",
        "sport": "soccer",
        "@geometry": "center"
      },
      "geometry": {
        "type": "Point",
        "coordinates": [
          25.9294648,
          48.3176421
        ]
      },
      "id": "way/88496798"
    },
    {
      "type": "Feature",
      "properties": {
        "@id": "way/88496808",
        "leisure": "pitch",
        "sport": "soccer",
        "@geometry": "center"
      },
      "geometry": {
        "type": "Point",
        "coordinates": [
          25.9287704,
          48.3186418
        ]
      },
      "id": "way/88496808"
    },
    {
      "type": "Feature",
      "properties": {
        "@id": "way/88498730",
        "leisure": "pitch",
        "sport": "soccer",
        "@geometry": "center"
      },
      "geometry": {
        "type": "Point",
        "coordinates": [
          25.9299271,
          48.3170886
        ]
      },
      "id": "way/88498730"
    },
    {
      "type": "Feature",
      "properties": {
        "@id": "way/89308383",
        "leisure": "pitch",
        "@geometry": "center"
      },
      "geometry": {
        "type": "Point",
        "coordinates": [
          25.9355172,
          48.2782062
        ]
      },
      "id": "way/89308383"
    },
    {
      "type": "Feature",
      "properties": {
        "@id": "way/89308390",
        "leisure": "pitch",
        "@geometry": "center"
      },
      "geometry": {
        "type": "Point",
        "coordinates": [
          25.9351886,
          48.2788262
        ]
      },
      "id": "way/89308390"
    },
    {
      "type": "Feature",
      "properties": {
        "@id": "way/89627224",
        "amenity": "kindergarten",
        "barrier": "wall",
        "name": "Дитячий Навчальний Заклад №22",
        "name:uk": "Дитячий Навчальний Заклад №22",
        "@geometry": "center"
      },
      "geometry": {
        "type": "Point",
        "coordinates": [
          25.9543215,
          48.2814652
        ]
      },
      "id": "way/89627224"
    },
    {
      "type": "Feature",
      "properties": {
        "@id": "way/89627232",
        "building": "yes",
        "name": "Формула 1",
        "name:uk": "Формула 1",
        "shop": "supermarket",
        "@geometry": "center"
      },
      "geometry": {
        "type": "Point",
        "coordinates": [
          25.9532939,
          48.2827636
        ]
      },
      "id": "way/89627232"
    },
    {
      "type": "Feature",
      "properties": {
        "@id": "way/89988559",
        "addr:housenumber": "1",
        "building": "yes",
        "shop": "mall",
        "@geometry": "center"
      },
      "geometry": {
        "type": "Point",
        "coordinates": [
          25.9555916,
          48.2604188
        ]
      },
      "id": "way/89988559"
    },
    {
      "type": "Feature",
      "properties": {
        "@id": "way/90101305",
        "amenity": "parking",
        "@geometry": "center"
      },
      "geometry": {
        "type": "Point",
        "coordinates": [
          25.9588865,
          48.3232149
        ]
      },
      "id": "way/90101305"
    },
    {
      "type": "Feature",
      "properties": {
        "@id": "way/91327721",
        "building": "yes",
        "name": "Сотня",
        "name:uk": "Сотня",
        "shop": "convenience",
        "@geometry": "center"
      },
      "geometry": {
        "type": "Point",
        "coordinates": [
          25.9367526,
          48.2522164
        ]
      },
      "id": "way/91327721"
    },
    {
      "type": "Feature",
      "properties": {
        "@id": "way/93536990",
        "access": "yes",
        "amenity": "parking",
        "capacity": "40",
        "fee": "yes",
        "parking": "lane",
        "supervised": "yes",
        "surface": "asphalt",
        "@geometry": "center"
      },
      "geometry": {
        "type": "Point",
        "coordinates": [
          26.4985574,
          48.5173755
        ]
      },
      "id": "way/93536990"
    },
    {
      "type": "Feature",
      "properties": {
        "@id": "way/95329208",
        "addr:housenumber": "2",
        "addr:postcode": "58002",
        "addr:street": "Театральна площа",
        "amenity": "university",
        "building": "yes",
        "description": "Адміністративний корпус",
        "name": "Буковинський державний медичний університет",
        "name:en": "Bukovinian State Medical University",
        "name:ru": "Буковинский государственный медицинский университет",
        "name:uk": "Буковинський державний медичний університет",
        "@geometry": "center"
      },
      "geometry": {
        "type": "Point",
        "coordinates": [
          25.932296,
          48.2914526
        ]
      },
      "id": "way/95329208"
    },
    {
      "type": "Feature",
      "properties": {
        "@id": "way/95405374",
        "access": "yes",
        "leisure": "playground",
        "@geometry": "center"
      },
      "geometry": {
        "type": "Point",
        "coordinates": [
          25.949867,
          48.2815485
        ]
      },
      "id": "way/95405374"
    },
    {
      "type": "Feature",
      "properties": {
        "@id": "way/95405406",
        "amenity": "parking",
        "parking": "street_side",
        "@geometry": "center"
      },
      "geometry": {
        "type": "Point",
        "coordinates": [
          25.9317063,
          48.2918313
        ]
      },
      "id": "way/95405406"
    },
    {
      "type": "Feature",
      "properties": {
        "@id": "way/98416661",
        "leisure": "pitch",
        "@geometry": "center"
      },
      "geometry": {
        "type": "Point",
        "coordinates": [
          25.9828788,
          48.2928284
        ]
      },
      "id": "way/98416661"
    },
    {
      "type": "Feature",
      "properties": {
        "@id": "way/98416662",
        "leisure": "pitch",
        "@geometry": "center"
      },
      "geometry": {
        "type": "Point",
        "coordinates": [
          25.9828862,
          48.2927002
        ]
      },
      "id": "way/98416662"
    },
    {
      "type": "Feature",
      "properties": {
        "@id": "way/99422043",
        "amenity": "parking",
        "wheelchair": "yes",
        "@geometry": "center"
      },
      "geometry": {
        "type": "Point",
        "coordinates": [
          25.9296418,
          48.3007997
        ]
      },
      "id": "way/99422043"
    },
    {
      "type": "Feature",
      "properties": {
        "@id": "way/100718307",
        "leisure": "pitch",
        "sport": "soccer",
        "@geometry": "center"
      },
      "geometry": {
        "type": "Point",
        "coordinates": [
          25.9443654,
          48.2551924
        ]
      },
      "id": "way/100718307"
    },
    {
      "type": "Feature",
      "properties": {
        "@id": "way/100788850",
        "amenity": "parking",
        "@geometry": "center"
      },
      "geometry": {
        "type": "Point",
        "coordinates": [
          25.9580621,
          48.3134974
        ]
      },
      "id": "way/100788850"
    },
    {
      "type": "Feature",
      "properties": {
        "@id": "way/100798140",
        "amenity": "parking",
        "@geometry": "center"
      },
      "geometry": {
        "type": "Point",
        "coordinates": [
          25.9610811,
          48.3135471
        ]
      },
      "id": "way/100798140"
    },
    {
      "type": "Feature",
      "properties": {
        "@id": "way/100807333",
        "amenity": "parking",
        "@geometry": "center"
      },
      "geometry": {
        "type": "Point",
        "coordinates": [
          25.9607145,
          48.3127396
        ]
      },
      "id": "way/100807333"
    },
    {
      "type": "Feature",
      "properties": {
        "@id": "way/100811856",
        "amenity": "parking",
        "name": "Автобазар",
        "name:uk": "Автобазар",
        "@geometry": "center"
      },
      "geometry": {
        "type": "Point",
        "coordinates": [
          25.9577161,
          48.3114659
        ]
      },
      "id": "way/100811856"
    },
    {
      "type": "Feature",
      "properties": {
        "@id": "way/101184842",
        "amenity": "parking",
        "@geometry": "center"
      },
      "geometry": {
        "type": "Point",
        "coordinates": [
          25.9928869,
          48.2714124
        ]
      },
      "id": "way/101184842"
    },
    {
      "type": "Feature",
      "properties": {
        "@id": "way/105839322",
        "leisure": "pitch",
        "sport": "soccer",
        "@geometry": "center"
      },
      "geometry": {
        "type": "Point",
        "coordinates": [
          25.9015001,
          48.3216529
        ]
      },
      "id": "way/105839322"
    },
    {
      "type": "Feature",
      "properties": {
        "@id": "way/105867423",
        "access": "permissive",
        "amenity": "parking",
        "@geometry": "center"
      },
      "geometry": {
        "type": "Point",
        "coordinates": [
          25.9033438,
          48.3211282
        ]
      },
      "id": "way/105867423"
    },
    {
      "type": "Feature",
      "properties": {
        "@id": "way/108235491",
        "leisure": "playground",
        "@geometry": "center"
      },
      "geometry": {
        "type": "Point",
        "coordinates": [
          25.9766441,
          48.2786766
        ]
      },
      "id": "way/108235491"
    },
    {
      "type": "Feature",
      "properties": {
        "@id": "way/108238365",
        "amenity": "parking",
        "barrier": "fence",
        "@geometry": "center"
      },
      "geometry": {
        "type": "Point",
        "coordinates": [
          25.9257135,
          48.2715815
        ]
      },
      "id": "way/108238365"
    },
    {
      "type": "Feature",
      "properties": {
        "@id": "way/108239881",
        "leisure": "pitch",
        "@geometry": "center"
      },
      "geometry": {
        "type": "Point",
        "coordinates": [
          25.9253682,
          48.2710294
        ]
      },
      "id": "way/108239881"
    },
    {
      "type": "Feature",
      "properties": {
        "@id": "way/108314959",
        "leisure": "park",
        "@geometry": "center"
      },
      "geometry": {
        "type": "Point",
        "coordinates": [
          25.9590982,
          48.3525146
        ]
      },
      "id": "way/108314959"
    },
    {
      "type": "Feature",
      "properties": {
        "@id": "way/109459829",
        "barrier": "fence",
        "leisure": "pitch",
        "sport": "tennis",
        "@geometry": "center"
      },
      "geometry": {
        "type": "Point",
        "coordinates": [
          25.9712696,
          48.2829941
        ]
      },
      "id": "way/109459829"
    },
    {
      "type": "Feature",
      "properties": {
        "@id": "way/110003233",
        "access": "yes",
        "amenity": "parking",
        "fee": "no",
        "parking": "surface",
        "wheelchair": "yes",
        "@geometry": "center"
      },
      "geometry": {
        "type": "Point",
        "coordinates": [
          25.9276463,
          48.2675151
        ]
      },
      "id": "way/110003233"
    },
    {
      "type": "Feature",
      "properties": {
        "@id": "way/115960940",
        "access": "yes",
        "leisure": "playground",
        "name": "Рошен",
        "name:uk": "Рошен",
        "@geometry": "center"
      },
      "geometry": {
        "type": "Point",
        "coordinates": [
          25.9358408,
          48.2624032
        ]
      },
      "id": "way/115960940"
    },
    {
      "type": "Feature",
      "properties": {
        "@id": "way/115960941",
        "leisure": "playground",
        "@geometry": "center"
      },
      "geometry": {
        "type": "Point",
        "coordinates": [
          25.9361676,
          48.2667493
        ]
      },
      "id": "way/115960941"
    },
    {
      "type": "Feature",
      "properties": {
        "@id": "way/118513953",
        "leisure": "playground",
        "@geometry": "center"
      },
      "geometry": {
        "type": "Point",
        "coordinates": [
          25.9500577,
          48.2651517
        ]
      },
      "id": "way/118513953"
    },
    {
      "type": "Feature",
      "properties": {
        "@id": "way/118513965",
        "amenity": "school",
        "barrier": "fence",
        "name": "Школа №24",
        "name:uk": "Школа №24",
        "religion": "none",
        "@geometry": "center"
      },
      "geometry": {
        "type": "Point",
        "coordinates": [
          25.9462285,
          48.2663364
        ]
      },
      "id": "way/118513965"
    },
    {
      "type": "Feature",
      "properties": {
        "@id": "way/118513979",
        "leisure": "pitch",
        "sport": "soccer",
        "@geometry": "center"
      },
      "geometry": {
        "type": "Point",
        "coordinates": [
          25.9457678,
          48.2659921
        ]
      },
      "id": "way/118513979"
    },
    {
      "type": "Feature",
      "properties": {
        "@id": "way/118513995",
        "amenity": "kindergarten",
        "barrier": "fence",
        "name": "Дошкільний навчальний заклад №24 Центр розвитку дитини \"Джерело\"",
        "name:ru": "Дошкольное учебное заведение №24 Центр развития ребенка \"Джерело\"",
        "name:uk": "Дошкільний навчальний заклад №24 Центр розвитку дитини \"Джерело\"",
        "@geometry": "center"
      },
      "geometry": {
        "type": "Point",
        "coordinates": [
          25.9450731,
          48.2654615
        ]
      },
      "id": "way/118513995"
    },
    {
      "type": "Feature",
      "properties": {
        "@id": "way/118555675",
        "leisure": "pitch",
        "lit": "no",
        "sport": "soccer",
        "surface": "grass",
        "@geometry": "center"
      },
      "geometry": {
        "type": "Point",
        "coordinates": [
          25.9345764,
          48.2598618
        ]
      },
      "id": "way/118555675"
    },
    {
      "type": "Feature",
      "properties": {
        "@id": "way/118555676",
        "leisure": "pitch",
        "lit": "no",
        "sport": "soccer",
        "surface": "grass",
        "@geometry": "center"
      },
      "geometry": {
        "type": "Point",
        "coordinates": [
          25.9351093,
          48.2600772
        ]
      },
      "id": "way/118555676"
    },
    {
      "type": "Feature",
      "properties": {
        "@id": "way/118594371",
        "access": "yes",
        "amenity": "parking",
        "@geometry": "center"
      },
      "geometry": {
        "type": "Point",
        "coordinates": [
          25.9409774,
          48.26165
        ]
      },
      "id": "way/118594371"
    },
    {
      "type": "Feature",
      "properties": {
        "@id": "way/120130457",
        "leisure": "playground",
        "@geometry": "center"
      },
      "geometry": {
        "type": "Point",
        "coordinates": [
          25.9489411,
          48.2661937
        ]
      },
      "id": "way/120130457"
    },
    {
      "type": "Feature",
      "properties": {
        "@id": "way/121913798",
        "barrier": "fence",
        "leisure": "playground",
        "@geometry": "center"
      },
      "geometry": {
        "type": "Point",
        "coordinates": [
          25.9416208,
          48.2929479
        ]
      },
      "id": "way/121913798"
    },
    {
      "type": "Feature",
      "properties": {
        "@id": "way/125961198",
        "barrier": "fence",
        "leisure": "pitch",
        "sport": "basketball",
        "@geometry": "center"
      },
      "geometry": {
        "type": "Point",
        "coordinates": [
          25.9457108,
          48.2865062
        ]
      },
      "id": "way/125961198"
    },
    {
      "type": "Feature",
      "properties": {
        "@id": "way/126231023",
        "addr:housenumber": "71",
        "addr:street": "вулиця Володимира Винниченка",
        "building": "yes",
        "shop": "convenience",
        "@geometry": "center"
      },
      "geometry": {
        "type": "Point",
        "coordinates": [
          25.9610116,
          48.2755895
        ]
      },
      "id": "way/126231023"
    },
    {
      "type": "Feature",
      "properties": {
        "@id": "way/128213310",
        "building": "yes",
        "opening_hours": "Mo-Su 09:00-21:00",
        "shop": "convenience",
        "@geometry": "center"
      },
      "geometry": {
        "type": "Point",
        "coordinates": [
          25.9349739,
          48.2703698
        ]
      },
      "id": "way/128213310"
    },
    {
      "type": "Feature",
      "properties": {
        "@id": "way/128213311",
        "leisure": "playground",
        "@geometry": "center"
      },
      "geometry": {
        "type": "Point",
        "coordinates": [
          25.9294189,
          48.2704368
        ]
      },
      "id": "way/128213311"
    },
    {
      "type": "Feature",
      "properties": {
        "@id": "way/128548364",
        "amenity": "school",
        "barrier": "fence",
        "name": "Гімназія №7",
        "name:ru": "Гимназия №7",
        "name:uk": "Гімназія №7",
        "@geometry": "center"
      },
      "geometry": {
        "type": "Point",
        "coordinates": [
          25.9346928,
          48.2713028
        ]
      },
      "id": "way/128548364"
    },
    {
      "type": "Feature",
      "properties": {
        "@id": "way/130300578",
        "barrier": "fence",
        "leisure": "playground",
        "@geometry": "center"
      },
      "geometry": {
        "type": "Point",
        "coordinates": [
          25.9479196,
          48.2810804
        ]
      },
      "id": "way/130300578"
    },
    {
      "type": "Feature",
      "properties": {
        "@id": "way/138957118",
        "amenity": "fast_food",
        "building": "yes",
        "shop": "convenience",
        "@geometry": "center"
      },
      "geometry": {
        "type": "Point",
        "coordinates": [
          25.9611593,
          48.2753055
        ]
      },
      "id": "way/138957118"
    },
    {
      "type": "Feature",
      "properties": {
        "@id": "way/140585472",
        "leisure": "playground",
        "@geometry": "center"
      },
      "geometry": {
        "type": "Point",
        "coordinates": [
          25.96588,
          48.2750404
        ]
      },
      "id": "way/140585472"
    },
    {
      "type": "Feature",
      "properties": {
        "@id": "way/151926034",
        "leisure": "pitch",
        "phone": "+380 95 044 2450",
        "sport": "tennis",
        "@geometry": "center"
      },
      "geometry": {
        "type": "Point",
        "coordinates": [
          25.9700867,
          48.2567881
        ]
      },
      "id": "way/151926034"
    },
    {
      "type": "Feature",
      "properties": {
        "@id": "way/154796946",
        "amenity": "parking",
        "@geometry": "center"
      },
      "geometry": {
        "type": "Point",
        "coordinates": [
          25.9989798,
          48.2707714
        ]
      },
      "id": "way/154796946"
    },
    {
      "type": "Feature",
      "properties": {
        "@id": "way/157390249",
        "addr:housenumber": "40-А",
        "building": "yes",
        "shop": "convenience",
        "@geometry": "center"
      },
      "geometry": {
        "type": "Point",
        "coordinates": [
          25.9470579,
          48.3202948
        ]
      },
      "id": "way/157390249"
    },
    {
      "type": "Feature",
      "properties": {
        "@id": "way/158786559",
        "building": "yes",
        "shop": "supermarket",
        "@geometry": "center"
      },
      "geometry": {
        "type": "Point",
        "coordinates": [
          25.5678105,
          48.3213327
        ]
      },
      "id": "way/158786559"
    },
    {
      "type": "Feature",
      "properties": {
        "@id": "way/158786585",
        "amenity": "kindergarten",
        "building": "yes",
        "@geometry": "center"
      },
      "geometry": {
        "type": "Point",
        "coordinates": [
          25.5685985,
          48.3233956
        ]
      },
      "id": "way/158786585"
    },
    {
      "type": "Feature",
      "properties": {
        "@id": "way/159382495",
        "access": "yes",
        "amenity": "parking",
        "@geometry": "center"
      },
      "geometry": {
        "type": "Point",
        "coordinates": [
          25.9581025,
          48.3560178
        ]
      },
      "id": "way/159382495"
    },
    {
      "type": "Feature",
      "properties": {
        "@id": "way/159382500",
        "access": "yes",
        "amenity": "parking",
        "@geometry": "center"
      },
      "geometry": {
        "type": "Point",
        "coordinates": [
          25.9571427,
          48.3563863
        ]
      },
      "id": "way/159382500"
    },
    {
      "type": "Feature",
      "properties": {
        "@id": "way/159398700",
        "building": "yes",
        "name": "Все для дому",
        "name:uk": "Все для дому",
        "shop": "convenience",
        "@geometry": "center"
      },
      "geometry": {
        "type": "Point",
        "coordinates": [
          25.9590897,
          48.3463448
        ]
      },
      "id": "way/159398700"
    },
    {
      "type": "Feature",
      "properties": {
        "@id": "way/162934659",
        "leisure": "pitch",
        "@geometry": "center"
      },
      "geometry": {
        "type": "Point",
        "coordinates": [
          25.9630292,
          48.3269194
        ]
      },
      "id": "way/162934659"
    },
    {
      "type": "Feature",
      "properties": {
        "@id": "way/165013888",
        "amenity": "hospital",
        "healthcare": "hospital",
        "@geometry": "center"
      },
      "geometry": {
        "type": "Point",
        "coordinates": [
          25.925851,
          48.2618504
        ]
      },
      "id": "way/165013888"
    },
    {
      "type": "Feature",
      "properties": {
        "@id": "way/165013889",
        "addr:housenumber": "242",
        "addr:street": "вулиця Героїв Майдану",
        "amenity": "hospital",
        "healthcare": "hospital",
        "name": "Чернівецький обласний клінічний онкологічний диспансер",
        "name:ru": "COVID-19: меры безопасности Черновицкий областной клинический онкологический диспансер",
        "name:uk": "Чернівецький обласний клінічний онкологічний диспансер",
        "@geometry": "center"
      },
      "geometry": {
        "type": "Point",
        "coordinates": [
          25.9257044,
          48.2599164
        ]
      },
      "id": "way/165013889"
    },
    {
      "type": "Feature",
      "properties": {
        "@id": "way/165538101",
        "access": "destination",
        "amenity": "parking",
        "@geometry": "center"
      },
      "geometry": {
        "type": "Point",
        "coordinates": [
          25.960539,
          48.2529656
        ]
      },
      "id": "way/165538101"
    },
    {
      "type": "Feature",
      "properties": {
        "@id": "way/165538103",
        "leisure": "pitch",
        "sport": "soccer",
        "@geometry": "center"
      },
      "geometry": {
        "type": "Point",
        "coordinates": [
          25.9616816,
          48.2549033
        ]
      },
      "id": "way/165538103"
    },
    {
      "type": "Feature",
      "properties": {
        "@id": "way/165538105",
        "access": "customers",
        "amenity": "parking",
        "@geometry": "center"
      },
      "geometry": {
        "type": "Point",
        "coordinates": [
          25.9596738,
          48.2515671
        ]
      },
      "id": "way/165538105"
    },
    {
      "type": "Feature",
      "properties": {
        "@id": "way/165538106",
        "leisure": "playground",
        "@geometry": "center"
      },
      "geometry": {
        "type": "Point",
        "coordinates": [
          25.9609781,
          48.2548053
        ]
      },
      "id": "way/165538106"
    },
    {
      "type": "Feature",
      "properties": {
        "@id": "way/165538108",
        "amenity": "parking",
        "@geometry": "center"
      },
      "geometry": {
        "type": "Point",
        "coordinates": [
          25.9588038,
          48.2522977
        ]
      },
      "id": "way/165538108"
    },
    {
      "type": "Feature",
      "properties": {
        "@id": "way/166393878",
        "leisure": "playground",
        "@geometry": "center"
      },
      "geometry": {
        "type": "Point",
        "coordinates": [
          25.9373739,
          48.2900235
        ]
      },
      "id": "way/166393878"
    },
    {
      "type": "Feature",
      "properties": {
        "@id": "way/169444877",
        "addr:housenumber": "48б",
        "addr:street": "Центральна вулиця",
        "amenity": "hospital",
        "building": "yes",
        "name": "Аптека",
        "name:uk": "Аптека",
        "@geometry": "center"
      },
      "geometry": {
        "type": "Point",
        "coordinates": [
          25.7822525,
          48.3598936
        ]
      },
      "id": "way/169444877"
    },
    {
      "type": "Feature",
      "properties": {
        "@id": "way/169603847",
        "leisure": "playground",
        "@geometry": "center"
      },
      "geometry": {
        "type": "Point",
        "coordinates": [
          25.9830086,
          48.2800996
        ]
      },
      "id": "way/169603847"
    },
    {
      "type": "Feature",
      "properties": {
        "@id": "way/174904465",
        "amenity": "school",
        "name": "Гімназія №3",
        "name:ru": "Гимназия №3",
        "name:uk": "Гімназія №3",
        "old_name": "школа №26",
        "@geometry": "center"
      },
      "geometry": {
        "type": "Point",
        "coordinates": [
          25.9410269,
          48.2809969
        ]
      },
      "id": "way/174904465"
    },
    {
      "type": "Feature",
      "properties": {
        "@id": "way/174904467",
        "access": "customers",
        "amenity": "parking",
        "fee": "no",
        "parking": "surface",
        "@geometry": "center"
      },
      "geometry": {
        "type": "Point",
        "coordinates": [
          25.9466071,
          48.2711673
        ]
      },
      "id": "way/174904467"
    },
    {
      "type": "Feature",
      "properties": {
        "@id": "way/174904468",
        "amenity": "parking",
        "parking": "street_side",
        "@geometry": "center"
      },
      "geometry": {
        "type": "Point",
        "coordinates": [
          25.9474346,
          48.2707532
        ]
      },
      "id": "way/174904468"
    },
    {
      "type": "Feature",
      "properties": {
        "@id": "way/175754976",
        "amenity": "kindergarten",
        "name": "Дитячий садок №46 \"Сонечко\"",
        "name:uk": "Дитячий садок №46 \"Сонечко\"",
        "@geometry": "center"
      },
      "geometry": {
        "type": "Point",
        "coordinates": [
          25.9603973,
          48.2699358
        ]
      },
      "id": "way/175754976"
    },
    {
      "type": "Feature",
      "properties": {
        "@id": "way/175778184",
        "building": "yes",
        "name": "Люкс",
        "name:uk": "Люкс",
        "shop": "convenience",
        "@geometry": "center"
      },
      "geometry": {
        "type": "Point",
        "coordinates": [
          25.9256629,
          48.3025487
        ]
      },
      "id": "way/175778184"
    },
    {
      "type": "Feature",
      "properties": {
        "@id": "way/175799356",
        "amenity": "school",
        "barrier": "fence",
        "name": "Гімназія №1",
        "name:ru": "Гимназия №1",
        "name:uk": "Гімназія №1",
        "@geometry": "center"
      },
      "geometry": {
        "type": "Point",
        "coordinates": [
          25.9430521,
          48.2692938
        ]
      },
      "id": "way/175799356"
    },
    {
      "type": "Feature",
      "properties": {
        "@id": "way/175799357",
        "amenity": "kindergarten",
        "barrier": "fence",
        "name": "Дитсадок №25 \"Малюк\"",
        "name:ru": "Дошкольное учебное заведение №25 Центр развития ребенка \"Малыш\"",
        "name:uk": "Дитсадок №25 \"Малюк\"",
        "official_name": "Дошкільний навчальний заклад №25 Центр розвитку дитини \"Малюк\"",
        "shortest_name": "Дитсадок №25",
        "@geometry": "center"
      },
      "geometry": {
        "type": "Point",
        "coordinates": [
          25.9351214,
          48.2725216
        ]
      },
      "id": "way/175799357"
    },
    {
      "type": "Feature",
      "properties": {
        "@id": "way/175799358",
        "amenity": "kindergarten",
        "barrier": "fence",
        "name": "Дитсадок №35",
        "name:ru": "Дошкольное учебное заведение №35 Центр развития ребенка",
        "name:uk": "Дитсадок №35",
        "official_name": "Дошкільний навчальний заклад №35 Центр розвитку дитини",
        "@geometry": "center"
      },
      "geometry": {
        "type": "Point",
        "coordinates": [
          25.9342295,
          48.2564881
        ]
      },
      "id": "way/175799358"
    },
    {
      "type": "Feature",
      "properties": {
        "@id": "way/175799359",
        "amenity": "kindergarten",
        "barrier": "fence",
        "name": "Дитячий навчальний заклад №47 комбінованого типу",
        "name:uk": "Дитячий навчальний заклад №47 комбінованого типу",
        "@geometry": "center"
      },
      "geometry": {
        "type": "Point",
        "coordinates": [
          25.950461,
          48.2685953
        ]
      },
      "id": "way/175799359"
    },
    {
      "type": "Feature",
      "properties": {
        "@id": "way/175799361",
        "amenity": "school",
        "name": "Школа №11",
        "name:uk": "Школа №11",
        "@geometry": "center"
      },
      "geometry": {
        "type": "Point",
        "coordinates": [
          25.9361702,
          48.2560553
        ]
      },
      "id": "way/175799361"
    },
    {
      "type": "Feature",
      "properties": {
        "@id": "way/175799362",
        "amenity": "school",
        "name": "Школа №20",
        "name:uk": "Школа №20",
        "@geometry": "center"
      },
      "geometry": {
        "type": "Point",
        "coordinates": [
          25.949872,
          48.2693788
        ]
      },
      "id": "way/175799362"
    },
    {
      "type": "Feature",
      "properties": {
        "@id": "way/175799363",
        "amenity": "school",
        "barrier": "fence",
        "name": "Школа №22",
        "name:uk": "Школа №22",
        "@geometry": "center"
      },
      "geometry": {
        "type": "Point",
        "coordinates": [
          25.9480013,
          48.2523845
        ]
      },
      "id": "way/175799363"
    },
    {
      "type": "Feature",
      "properties": {
        "@id": "way/175799365",
        "amenity": "school",
        "name": "Школа №3",
        "name:uk": "Школа №3",
        "@geometry": "center"
      },
      "geometry": {
        "type": "Point",
        "coordinates": [
          25.9536241,
          48.2821421
        ]
      },
      "id": "way/175799365"
    },
    {
      "type": "Feature",
      "properties": {
        "@id": "way/175799367",
        "amenity": "school",
        "barrier": "fence",
        "name": "Ліцей №18",
        "name:uk": "Ліцей №18",
        "official_name": "ернівецький ліцей № 18 Чернівецької міської ради",
        "old_name": "Школа №6",
        "@geometry": "center"
      },
      "geometry": {
        "type": "Point",
        "coordinates": [
          25.9352541,
          48.2594872
        ]
      },
      "id": "way/175799367"
    },
    {
      "type": "Feature",
      "properties": {
        "@id": "way/175799368",
        "amenity": "kindergarten",
        "barrier": "fence",
        "name": "Дитячий садок №21",
        "name:uk": "Дитячий садок №21",
        "official_name": "Дошкільний навчальний заклад №21",
        "@geometry": "center"
      },
      "geometry": {
        "type": "Point",
        "coordinates": [
          25.9415779,
          48.2697641
        ]
      },
      "id": "way/175799368"
    },
    {
      "type": "Feature",
      "properties": {
        "@id": "way/175799369",
        "amenity": "kindergarten",
        "barrier": "fence",
        "@geometry": "center"
      },
      "geometry": {
        "type": "Point",
        "coordinates": [
          25.9310648,
          48.2631431
        ]
      },
      "id": "way/175799369"
    },
    {
      "type": "Feature",
      "properties": {
        "@id": "way/175799370",
        "amenity": "kindergarten",
        "barrier": "fence",
        "name": "Дитсадок №32",
        "name:ru": "Детсад №32",
        "name:uk": "Дитсадок №32",
        "official_name": "Дошкільний навчальний заклад №32 комбінованого типу",
        "@geometry": "center"
      },
      "geometry": {
        "type": "Point",
        "coordinates": [
          25.9368334,
          48.2572374
        ]
      },
      "id": "way/175799370"
    },
    {
      "type": "Feature",
      "properties": {
        "@id": "way/175799371",
        "addr:housenumber": "85-А",
        "addr:street": "вулиця Героїв Майдану",
        "amenity": "kindergarten",
        "barrier": "fence",
        "name": "Дитсадок №45",
        "name:ru": "Детсад №45",
        "name:uk": "Дитсадок №45",
        "official_name": "Дошкільний навчальний заклад №45 комбінованого типу",
        "@geometry": "center"
      },
      "geometry": {
        "type": "Point",
        "coordinates": [
          25.9293901,
          48.2613508
        ]
      },
      "id": "way/175799371"
    },
    {
      "type": "Feature",
      "properties": {
        "@id": "way/175799372",
        "amenity": "kindergarten",
        "name": "Дитсадок №9",
        "name:uk": "Дитсадок №9",
        "official_name": "Дошкільний навчальний заклад №9 комбінованого типу",
        "@geometry": "center"
      },
      "geometry": {
        "type": "Point",
        "coordinates": [
          25.9342359,
          48.269841
        ]
      },
      "id": "way/175799372"
    },
    {
      "type": "Feature",
      "properties": {
        "@id": "way/175799373",
        "amenity": "kindergarten",
        "barrier": "fence",
        "name": "Дитсадок №33 \"Оселя Талановитих\"",
        "name:ru": "Детсад №33 \"Обитель Талантливых\"",
        "name:uk": "Дитсадок №33 \"Оселя Талановитих\"",
        "official_name": "Дошкільний навчальний заклад №33 Центр розвитку дитини \"Оселя Талановитих\"",
        "@geometry": "center"
      },
      "geometry": {
        "type": "Point",
        "coordinates": [
          25.9330274,
          48.2609868
        ]
      },
      "id": "way/175799373"
    },
    {
      "type": "Feature",
      "properties": {
        "@id": "way/175799375",
        "amenity": "kindergarten",
        "name": "Дитсадок №43 \"Вербиченька\"",
        "name:uk": "Дитсадок №43 \"Вербиченька\"",
        "official_name": "Дошкільний навчальний заклад №43 комбінованого типу \"Вербиченька\"",
        "@geometry": "center"
      },
      "geometry": {
        "type": "Point",
        "coordinates": [
          25.9371916,
          48.2693839
        ]
      },
      "id": "way/175799375"
    },
    {
      "type": "Feature",
      "properties": {
        "@id": "way/177231195",
        "amenity": "parking",
        "@geometry": "center"
      },
      "geometry": {
        "type": "Point",
        "coordinates": [
          25.9663919,
          48.3110219
        ]
      },
      "id": "way/177231195"
    },
    {
      "type": "Feature",
      "properties": {
        "@id": "way/177790583",
        "amenity": "parking",
        "@geometry": "center"
      },
      "geometry": {
        "type": "Point",
        "coordinates": [
          25.9587133,
          48.3119675
        ]
      },
      "id": "way/177790583"
    },
    {
      "type": "Feature",
      "properties": {
        "@id": "way/177790584",
        "amenity": "parking",
        "@geometry": "center"
      },
      "geometry": {
        "type": "Point",
        "coordinates": [
          25.9577788,
          48.3126998
        ]
      },
      "id": "way/177790584"
    },
    {
      "type": "Feature",
      "properties": {
        "@id": "way/177795039",
        "amenity": "parking",
        "@geometry": "center"
      },
      "geometry": {
        "type": "Point",
        "coordinates": [
          25.9594413,
          48.315456
        ]
      },
      "id": "way/177795039"
    },
    {
      "type": "Feature",
      "properties": {
        "@id": "way/177795040",
        "amenity": "parking",
        "@geometry": "center"
      },
      "geometry": {
        "type": "Point",
        "coordinates": [
          25.9591427,
          48.3112857
        ]
      },
      "id": "way/177795040"
    },
    {
      "type": "Feature",
      "properties": {
        "@id": "way/177797838",
        "amenity": "parking",
        "@geometry": "center"
      },
      "geometry": {
        "type": "Point",
        "coordinates": [
          25.9592423,
          48.3132004
        ]
      },
      "id": "way/177797838"
    },
    {
      "type": "Feature",
      "properties": {
        "@id": "way/177800216",
        "amenity": "parking",
        "@geometry": "center"
      },
      "geometry": {
        "type": "Point",
        "coordinates": [
          25.9585344,
          48.3097131
        ]
      },
      "id": "way/177800216"
    },
    {
      "type": "Feature",
      "properties": {
        "@id": "way/177800217",
        "amenity": "parking",
        "@geometry": "center"
      },
      "geometry": {
        "type": "Point",
        "coordinates": [
          25.9592129,
          48.3097358
        ]
      },
      "id": "way/177800217"
    },
    {
      "type": "Feature",
      "properties": {
        "@id": "way/178780855",
        "amenity": "parking",
        "@geometry": "center"
      },
      "geometry": {
        "type": "Point",
        "coordinates": [
          25.9590947,
          48.3177268
        ]
      },
      "id": "way/178780855"
    },
    {
      "type": "Feature",
      "properties": {
        "@id": "way/179958073",
        "amenity": "parking",
        "@geometry": "center"
      },
      "geometry": {
        "type": "Point",
        "coordinates": [
          25.9213753,
          48.2746986
        ]
      },
      "id": "way/179958073"
    },
    {
      "type": "Feature",
      "properties": {
        "@id": "way/181440013",
        "amenity": "parking",
        "@geometry": "center"
      },
      "geometry": {
        "type": "Point",
        "coordinates": [
          25.9661526,
          48.2666039
        ]
      },
      "id": "way/181440013"
    },
    {
      "type": "Feature",
      "properties": {
        "@id": "way/183504586",
        "leisure": "park",
        "@geometry": "center"
      },
      "geometry": {
        "type": "Point",
        "coordinates": [
          25.928639,
          48.2892767
        ]
      },
      "id": "way/183504586"
    },
    {
      "type": "Feature",
      "properties": {
        "@id": "way/183515355",
        "amenity": "parking",
        "@geometry": "center"
      },
      "geometry": {
        "type": "Point",
        "coordinates": [
          25.9418944,
          48.2761619
        ]
      },
      "id": "way/183515355"
    },
    {
      "type": "Feature",
      "properties": {
        "@id": "way/183515364",
        "leisure": "pitch",
        "sport": "soccer",
        "@geometry": "center"
      },
      "geometry": {
        "type": "Point",
        "coordinates": [
          25.942836,
          48.2756137
        ]
      },
      "id": "way/183515364"
    },
    {
      "type": "Feature",
      "properties": {
        "@id": "way/183515365",
        "leisure": "pitch",
        "@geometry": "center"
      },
      "geometry": {
        "type": "Point",
        "coordinates": [
          25.9425628,
          48.2759881
        ]
      },
      "id": "way/183515365"
    },
    {
      "type": "Feature",
      "properties": {
        "@id": "way/185427950",
        "leisure": "park",
        "@geometry": "center"
      },
      "geometry": {
        "type": "Point",
        "coordinates": [
          25.9343397,
          48.286494
        ]
      },
      "id": "way/185427950"
    },
    {
      "type": "Feature",
      "properties": {
        "@id": "way/186242808",
        "leisure": "pitch",
        "sport": "soccer",
        "@geometry": "center"
      },
      "geometry": {
        "type": "Point",
        "coordinates": [
          25.9249736,
          48.295246
        ]
      },
      "id": "way/186242808"
    },
    {
      "type": "Feature",
      "properties": {
        "@id": "way/186575867",
        "amenity": "parking",
        "@geometry": "center"
      },
      "geometry": {
        "type": "Point",
        "coordinates": [
          25.9271485,
          48.2621153
        ]
      },
      "id": "way/186575867"
    },
    {
      "type": "Feature",
      "properties": {
        "@id": "way/187398018",
        "amenity": "parking",
        "@geometry": "center"
      },
      "geometry": {
        "type": "Point",
        "coordinates": [
          25.9266053,
          48.2580175
        ]
      },
      "id": "way/187398018"
    },
    {
      "type": "Feature",
      "properties": {
        "@id": "way/187398021",
        "amenity": "parking",
        "@geometry": "center"
      },
      "geometry": {
        "type": "Point",
        "coordinates": [
          25.9264867,
          48.2626544
        ]
      },
      "id": "way/187398021"
    },
    {
      "type": "Feature",
      "properties": {
        "@id": "way/187398022",
        "amenity": "parking",
        "@geometry": "center"
      },
      "geometry": {
        "type": "Point",
        "coordinates": [
          25.9262583,
          48.2585594
        ]
      },
      "id": "way/187398022"
    },
    {
      "type": "Feature",
      "properties": {
        "@id": "way/187404190",
        "amenity": "parking",
        "fee": "no",
        "parking": "surface",
        "@geometry": "center"
      },
      "geometry": {
        "type": "Point",
        "coordinates": [
          25.9245922,
          48.2692919
        ]
      },
      "id": "way/187404190"
    },
    {
      "type": "Feature",
      "properties": {
        "@id": "way/187404192",
        "amenity": "parking",
        "@geometry": "center"
      },
      "geometry": {
        "type": "Point",
        "coordinates": [
          25.9255558,
          48.2684403
        ]
      },
      "id": "way/187404192"
    },
    {
      "type": "Feature",
      "properties": {
        "@id": "way/187404196",
        "amenity": "parking",
        "@geometry": "center"
      },
      "geometry": {
        "type": "Point",
        "coordinates": [
          25.9261708,
          48.2659243
        ]
      },
      "id": "way/187404196"
    },
    {
      "type": "Feature",
      "properties": {
        "@id": "way/188551456",
        "amenity": "parking",
        "@geometry": "center"
      },
      "geometry": {
        "type": "Point",
        "coordinates": [
          25.9332578,
          48.2999775
        ]
      },
      "id": "way/188551456"
    },
    {
      "type": "Feature",
      "properties": {
        "@id": "way/188551457",
        "amenity": "parking",
        "@geometry": "center"
      },
      "geometry": {
        "type": "Point",
        "coordinates": [
          25.9305983,
          48.3006537
        ]
      },
      "id": "way/188551457"
    },
    {
      "type": "Feature",
      "properties": {
        "@id": "way/188854837",
        "amenity": "parking",
        "@geometry": "center"
      },
      "geometry": {
        "type": "Point",
        "coordinates": [
          25.9212907,
          48.2701349
        ]
      },
      "id": "way/188854837"
    },
    {
      "type": "Feature",
      "properties": {
        "@id": "way/189021143",
        "building": "yes",
        "shop": "convenience",
        "@geometry": "center"
      },
      "geometry": {
        "type": "Point",
        "coordinates": [
          25.9079365,
          48.2668905
        ]
      },
      "id": "way/189021143"
    },
    {
      "type": "Feature",
      "properties": {
        "@id": "way/189464820",
        "addr:housenumber": "9",
        "addr:street": "Мукачівська вулиця",
        "building": "yes",
        "name": "Феникс",
        "name:uk": "Феникс",
        "opening_hours": "Mo-Su 09:00-21:00",
        "payment:cash": "yes",
        "payment:contactless": "yes",
        "payment:credit_cards": "yes",
        "shop": "convenience",
        "@geometry": "center"
      },
      "geometry": {
        "type": "Point",
        "coordinates": [
          25.9075726,
          48.2764978
        ]
      },
      "id": "way/189464820"
    },
    {
      "type": "Feature",
      "properties": {
        "@id": "way/190018248",
        "leisure": "pitch",
        "sport": "soccer",
        "@geometry": "center"
      },
      "geometry": {
        "type": "Point",
        "coordinates": [
          25.9420285,
          48.2749525
        ]
      },
      "id": "way/190018248"
    },
    {
      "type": "Feature",
      "properties": {
        "@id": "way/190018361",
        "leisure": "pitch",
        "@geometry": "center"
      },
      "geometry": {
        "type": "Point",
        "coordinates": [
          25.9425089,
          48.2744776
        ]
      },
      "id": "way/190018361"
    },
    {
      "type": "Feature",
      "properties": {
        "@id": "way/190036206",
        "amenity": "parking",
        "@geometry": "center"
      },
      "geometry": {
        "type": "Point",
        "coordinates": [
          25.9440796,
          48.2776224
        ]
      },
      "id": "way/190036206"
    },
    {
      "type": "Feature",
      "properties": {
        "@id": "way/190036207",
        "amenity": "parking",
        "@geometry": "center"
      },
      "geometry": {
        "type": "Point",
        "coordinates": [
          25.9432408,
          48.2776016
        ]
      },
      "id": "way/190036207"
    },
    {
      "type": "Feature",
      "properties": {
        "@id": "way/190396859",
        "addr:city": "Чернівці",
        "addr:housenumber": "4-В",
        "addr:postcode": "58007",
        "addr:street": "вулиця Галицький Шлях",
        "amenity": "bus_station",
        "building": "static_caravan",
        "bus": "yes",
        "name": "Автостанція \"Чернівці-3\" (АС-3)",
        "name:uk": "Автостанція \"Чернівці-3\" (АС-3)",
        "public_transport": "station",
        "@geometry": "center"
      },
      "geometry": {
        "type": "Point",
        "coordinates": [
          25.9164841,
          48.3153712
        ]
      },
      "id": "way/190396859"
    },
    {
      "type": "Feature",
      "properties": {
        "@id": "way/190577139",
        "leisure": "pitch",
        "sport": "skateboard",
        "@geometry": "center"
      },
      "geometry": {
        "type": "Point",
        "coordinates": [
          25.9148759,
          48.3148754
        ]
      },
      "id": "way/190577139"
    },
    {
      "type": "Feature",
      "properties": {
        "@id": "way/190577140",
        "amenity": "parking",
        "barrier": "fence",
        "@geometry": "center"
      },
      "geometry": {
        "type": "Point",
        "coordinates": [
          25.9207782,
          48.3163598
        ]
      },
      "id": "way/190577140"
    },
    {
      "type": "Feature",
      "properties": {
        "@id": "way/190577150",
        "amenity": "parking",
        "@geometry": "center"
      },
      "geometry": {
        "type": "Point",
        "coordinates": [
          25.9163495,
          48.3136676
        ]
      },
      "id": "way/190577150"
    },
    {
      "type": "Feature",
      "properties": {
        "@id": "way/191082012",
        "amenity": "parking",
        "@geometry": "center"
      },
      "geometry": {
        "type": "Point",
        "coordinates": [
          25.9764766,
          48.2895893
        ]
      },
      "id": "way/191082012"
    },
    {
      "type": "Feature",
      "properties": {
        "@id": "way/192213322",
        "barrier": "fence",
        "leisure": "pitch",
        "sport": "soccer",
        "@geometry": "center"
      },
      "geometry": {
        "type": "Point",
        "coordinates": [
          25.9452152,
          48.2550324
        ]
      },
      "id": "way/192213322"
    },
    {
      "type": "Feature",
      "properties": {
        "@id": "way/192213325",
        "barrier": "fence",
        "leisure": "pitch",
        "@geometry": "center"
      },
      "geometry": {
        "type": "Point",
        "coordinates": [
          25.9444502,
          48.2545232
        ]
      },
      "id": "way/192213325"
    },
    {
      "type": "Feature",
      "properties": {
        "@id": "way/192566321",
        "amenity": "parking",
        "@geometry": "center"
      },
      "geometry": {
        "type": "Point",
        "coordinates": [
          25.9419108,
          48.2604947
        ]
      },
      "id": "way/192566321"
    },
    {
      "type": "Feature",
      "properties": {
        "@id": "way/192566323",
        "amenity": "parking",
        "@geometry": "center"
      },
      "geometry": {
        "type": "Point",
        "coordinates": [
          25.9415227,
          48.259957
        ]
      },
      "id": "way/192566323"
    },
    {
      "type": "Feature",
      "properties": {
        "@id": "way/192749699",
        "building": "yes",
        "shop": "convenience",
        "@geometry": "center"
      },
      "geometry": {
        "type": "Point",
        "coordinates": [
          25.8992772,
          48.2663685
        ]
      },
      "id": "way/192749699"
    },
    {
      "type": "Feature",
      "properties": {
        "@id": "way/193152528",
        "leisure": "pitch",
        "sport": "soccer",
        "@geometry": "center"
      },
      "geometry": {
        "type": "Point",
        "coordinates": [
          26.4874837,
          48.4975998
        ]
      },
      "id": "way/193152528"
    },
    {
      "type": "Feature",
      "properties": {
        "@id": "way/195887502",
        "leisure": "pitch",
        "@geometry": "center"
      },
      "geometry": {
        "type": "Point",
        "coordinates": [
          25.9209708,
          48.3104689
        ]
      },
      "id": "way/195887502"
    },
    {
      "type": "Feature",
      "properties": {
        "@id": "way/197033452",
        "addr:housenumber": "59",
        "addr:street": "Каштанова вулиця",
        "bench": "yes",
        "building": "yes",
        "bus": "yes",
        "covered": "yes",
        "public_transport": "platform",
        "@geometry": "center"
      },
      "geometry": {
        "type": "Point",
        "coordinates": [
          25.928987,
          48.3480773
        ]
      },
      "id": "way/197033452"
    },
    {
      "type": "Feature",
      "properties": {
        "@id": "way/197924208",
        "amenity": "kindergarten",
        "landuse": "education",
        "name": "Дитячий садок №5",
        "name:ru": "Дошкольное учебное заведение №5",
        "name:uk": "Дитячий садок №5",
        "official_name": "Дошкільний навчальний заклад №5",
        "operator": "Управління освіти Чернівецької міської ради",
        "operator:type": "public",
        "ref:edbo": "171354",
        "ref:isuo": "51101",
        "short_name": "ДНЗ № 5",
        "@geometry": "center"
      },
      "geometry": {
        "type": "Point",
        "coordinates": [
          25.9263907,
          48.2959675
        ]
      },
      "id": "way/197924208"
    },
    {
      "type": "Feature",
      "properties": {
        "@id": "way/198117992",
        "leisure": "pitch",
        "@geometry": "center"
      },
      "geometry": {
        "type": "Point",
        "coordinates": [
          25.9255617,
          48.3336537
        ]
      },
      "id": "way/198117992"
    },
    {
      "type": "Feature",
      "properties": {
        "@id": "way/198550313",
        "access": "yes",
        "amenity": "parking",
        "@geometry": "center"
      },
      "geometry": {
        "type": "Point",
        "coordinates": [
          26.0130343,
          48.3025421
        ]
      },
      "id": "way/198550313"
    },
    {
      "type": "Feature",
      "properties": {
        "@id": "way/198550317",
        "amenity": "parking",
        "@geometry": "center"
      },
      "geometry": {
        "type": "Point",
        "coordinates": [
          26.0110791,
          48.2992893
        ]
      },
      "id": "way/198550317"
    },
    {
      "type": "Feature",
      "properties": {
        "@id": "way/198854344",
        "leisure": "park",
        "@geometry": "center"
      },
      "geometry": {
        "type": "Point",
        "coordinates": [
          25.9295769,
          48.2991894
        ]
      },
      "id": "way/198854344"
    },
    {
      "type": "Feature",
      "properties": {
        "@id": "way/199478171",
        "leisure": "park",
        "@geometry": "center"
      },
      "geometry": {
        "type": "Point",
        "coordinates": [
          25.9542433,
          48.3520742
        ]
      },
      "id": "way/199478171"
    },
    {
      "type": "Feature",
      "properties": {
        "@id": "way/199478173",
        "leisure": "park",
        "name": "Садгірський",
        "name:uk": "Садгірський",
        "wikidata": "Q116944593",
        "wikipedia": "uk:Садгірський парк (Чернівці, вул. Підкови)",
        "@geometry": "center"
      },
      "geometry": {
        "type": "Point",
        "coordinates": [
          25.954251,
          48.3505055
        ]
      },
      "id": "way/199478173"
    },
    {
      "type": "Feature",
      "properties": {
        "@id": "way/199479871",
        "leisure": "pitch",
        "@geometry": "center"
      },
      "geometry": {
        "type": "Point",
        "coordinates": [
          25.9534252,
          48.3504008
        ]
      },
      "id": "way/199479871"
    },
    {
      "type": "Feature",
      "properties": {
        "@id": "way/200739027",
        "amenity": "parking",
        "parking": "street_side",
        "@geometry": "center"
      },
      "geometry": {
        "type": "Point",
        "coordinates": [
          25.9337794,
          48.2847258
        ]
      },
      "id": "way/200739027"
    },
    {
      "type": "Feature",
      "properties": {
        "@id": "way/201436127",
        "leisure": "playground",
        "@geometry": "center"
      },
      "geometry": {
        "type": "Point",
        "coordinates": [
          25.959925,
          48.2684768
        ]
      },
      "id": "way/201436127"
    },
    {
      "type": "Feature",
      "properties": {
        "@id": "way/202414472",
        "amenity": "parking",
        "@geometry": "center"
      },
      "geometry": {
        "type": "Point",
        "coordinates": [
          25.9331661,
          48.2936213
        ]
      },
      "id": "way/202414472"
    },
    {
      "type": "Feature",
      "properties": {
        "@id": "way/202414479",
        "access": "yes",
        "leisure": "playground",
        "@geometry": "center"
      },
      "geometry": {
        "type": "Point",
        "coordinates": [
          25.9319333,
          48.290172
        ]
      },
      "id": "way/202414479"
    },
    {
      "type": "Feature",
      "properties": {
        "@id": "way/202414480",
        "leisure": "playground",
        "@geometry": "center"
      },
      "geometry": {
        "type": "Point",
        "coordinates": [
          25.9374205,
          48.2968812
        ]
      },
      "id": "way/202414480"
    },
    {
      "type": "Feature",
      "properties": {
        "@id": "way/202950789",
        "amenity": "hospital",
        "@geometry": "center"
      },
      "geometry": {
        "type": "Point",
        "coordinates": [
          25.9438736,
          48.2743444
        ]
      },
      "id": "way/202950789"
    },
    {
      "type": "Feature",
      "properties": {
        "@id": "way/202950800",
        "amenity": "school",
        "barrier": "wall",
        "name": "Школа №30",
        "name:uk": "Школа №30",
        "@geometry": "center"
      },
      "geometry": {
        "type": "Point",
        "coordinates": [
          25.9426086,
          48.2736481
        ]
      },
      "id": "way/202950800"
    },
    {
      "type": "Feature",
      "properties": {
        "@id": "way/204688331",
        "amenity": "school",
        "name": "Школа №31",
        "name:uk": "Школа №31",
        "@geometry": "center"
      },
      "geometry": {
        "type": "Point",
        "coordinates": [
          25.9642174,
          48.3263013
        ]
      },
      "id": "way/204688331"
    },
    {
      "type": "Feature",
      "properties": {
        "@id": "way/205697325",
        "leisure": "park",
        "@geometry": "center"
      },
      "geometry": {
        "type": "Point",
        "coordinates": [
          25.9567074,
          48.3478075
        ]
      },
      "id": "way/205697325"
    },
    {
      "type": "Feature",
      "properties": {
        "@id": "way/208117923",
        "amenity": "school",
        "name": "Топорівська середня школа",
        "name:uk": "Топорівська середня школа",
        "source": "my memory",
        "@geometry": "center"
      },
      "geometry": {
        "type": "Point",
        "coordinates": [
          26.0842945,
          48.3819776
        ]
      },
      "id": "way/208117923"
    },
    {
      "type": "Feature",
      "properties": {
        "@id": "way/208213206",
        "addr:housenumber": "122/1",
        "building": "yes",
        "shop": "convenience",
        "@geometry": "center"
      },
      "geometry": {
        "type": "Point",
        "coordinates": [
          25.8753999,
          48.2819791
        ]
      },
      "id": "way/208213206"
    },
    {
      "type": "Feature",
      "properties": {
        "@id": "way/208271823",
        "leisure": "pitch",
        "sport": "soccer",
        "@geometry": "center"
      },
      "geometry": {
        "type": "Point",
        "coordinates": [
          26.8360344,
          48.4690389
        ]
      },
      "id": "way/208271823"
    },
    {
      "type": "Feature",
      "properties": {
        "@id": "way/208271832",
        "leisure": "pitch",
        "sport": "soccer",
        "@geometry": "center"
      },
      "geometry": {
        "type": "Point",
        "coordinates": [
          26.8358677,
          48.468243
        ]
      },
      "id": "way/208271832"
    },
    {
      "type": "Feature",
      "properties": {
        "@id": "way/208355758",
        "leisure": "pitch",
        "sport": "soccer",
        "@geometry": "center"
      },
      "geometry": {
        "type": "Point",
        "coordinates": [
          26.8464963,
          48.5198552
        ]
      },
      "id": "way/208355758"
    },
    {
      "type": "Feature",
      "properties": {
        "@id": "way/208471819",
        "addr:housenumber": "35",
        "addr:street": "Центральна вулиця",
        "amenity": "school",
        "building": "school",
        "name": "Вартиківська школа I-II ступенів /9 класів/",
        "name:uk": "Вартиківська школа I-II ступенів /9 класів/",
        "@geometry": "center"
      },
      "geometry": {
        "type": "Point",
        "coordinates": [
          26.7923293,
          48.4349136
        ]
      },
      "id": "way/208471819"
    },
    {
      "type": "Feature",
      "properties": {
        "@id": "way/210039086",
        "leisure": "playground",
        "@geometry": "center"
      },
      "geometry": {
        "type": "Point",
        "coordinates": [
          25.9546476,
          48.2583259
        ]
      },
      "id": "way/210039086"
    },
    {
      "type": "Feature",
      "properties": {
        "@id": "way/210039087",
        "leisure": "pitch",
        "sport": "soccer",
        "@geometry": "center"
      },
      "geometry": {
        "type": "Point",
        "coordinates": [
          25.9543905,
          48.2582497
        ]
      },
      "id": "way/210039087"
    },
    {
      "type": "Feature",
      "properties": {
        "@id": "way/216960239",
        "amenity": "parking",
        "@geometry": "center"
      },
      "geometry": {
        "type": "Point",
        "coordinates": [
          25.9604723,
          48.318314
        ]
      },
      "id": "way/216960239"
    },
    {
      "type": "Feature",
      "properties": {
        "@id": "way/216960240",
        "amenity": "parking",
        "@geometry": "center"
      },
      "geometry": {
        "type": "Point",
        "coordinates": [
          25.9607538,
          48.3159266
        ]
      },
      "id": "way/216960240"
    },
    {
      "type": "Feature",
      "properties": {
        "@id": "way/216960241",
        "amenity": "parking",
        "@geometry": "center"
      },
      "geometry": {
        "type": "Point",
        "coordinates": [
          25.9601776,
          48.3173202
        ]
      },
      "id": "way/216960241"
    },
    {
      "type": "Feature",
      "properties": {
        "@id": "way/217550668",
        "access": "yes",
        "leisure": "playground",
        "name": "Рекреаційна зона для дітей",
        "name:uk": "Рекреаційна зона для дітей",
        "surface": "paved",
        "@geometry": "center"
      },
      "geometry": {
        "type": "Point",
        "coordinates": [
          25.9570171,
          48.3248652
        ]
      },
      "id": "way/217550668"
    },
    {
      "type": "Feature",
      "properties": {
        "@id": "way/217550670",
        "leisure": "playground",
        "@geometry": "center"
      },
      "geometry": {
        "type": "Point",
        "coordinates": [
          25.9574787,
          48.3238091
        ]
      },
      "id": "way/217550670"
    },
    {
      "type": "Feature",
      "properties": {
        "@id": "way/217550672",
        "leisure": "playground",
        "@geometry": "center"
      },
      "geometry": {
        "type": "Point",
        "coordinates": [
          25.9540928,
          48.3231548
        ]
      },
      "id": "way/217550672"
    },
    {
      "type": "Feature",
      "properties": {
        "@id": "way/218738896",
        "addr:housenumber": "3",
        "addr:postcode": "58018",
        "addr:street": "вулиця Ентузіастів",
        "building": "yes",
        "name": "Мега",
        "name:en": "Mega",
        "name:uk": "Мега",
        "shop": "mall",
        "@geometry": "center"
      },
      "geometry": {
        "type": "Point",
        "coordinates": [
          25.9525041,
          48.2593126
        ]
      },
      "id": "way/218738896"
    },
    {
      "type": "Feature",
      "properties": {
        "@id": "way/218738919",
        "leisure": "playground",
        "@geometry": "center"
      },
      "geometry": {
        "type": "Point",
        "coordinates": [
          25.9529103,
          48.2557639
        ]
      },
      "id": "way/218738919"
    },
    {
      "type": "Feature",
      "properties": {
        "@id": "way/219625442",
        "amenity": "parking",
        "@geometry": "center"
      },
      "geometry": {
        "type": "Point",
        "coordinates": [
          25.9730242,
          48.2851819
        ]
      },
      "id": "way/219625442"
    },
    {
      "type": "Feature",
      "properties": {
        "@id": "way/219739892",
        "amenity": "parking",
        "@geometry": "center"
      },
      "geometry": {
        "type": "Point",
        "coordinates": [
          25.9724368,
          48.2834678
        ]
      },
      "id": "way/219739892"
    },
    {
      "type": "Feature",
      "properties": {
        "@id": "way/219739893",
        "amenity": "parking",
        "barrier": "fence",
        "@geometry": "center"
      },
      "geometry": {
        "type": "Point",
        "coordinates": [
          25.9784363,
          48.2822115
        ]
      },
      "id": "way/219739893"
    },
    {
      "type": "Feature",
      "properties": {
        "@id": "way/219739894",
        "amenity": "parking",
        "@geometry": "center"
      },
      "geometry": {
        "type": "Point",
        "coordinates": [
          25.973607,
          48.2831372
        ]
      },
      "id": "way/219739894"
    },
    {
      "type": "Feature",
      "properties": {
        "@id": "way/219739895",
        "amenity": "parking",
        "@geometry": "center"
      },
      "geometry": {
        "type": "Point",
        "coordinates": [
          25.9794123,
          48.2827143
        ]
      },
      "id": "way/219739895"
    },
    {
      "type": "Feature",
      "properties": {
        "@id": "way/219897724",
        "amenity": "parking",
        "@geometry": "center"
      },
      "geometry": {
        "type": "Point",
        "coordinates": [
          25.9805062,
          48.2885449
        ]
      },
      "id": "way/219897724"
    },
    {
      "type": "Feature",
      "properties": {
        "@id": "way/219897739",
        "amenity": "parking",
        "@geometry": "center"
      },
      "geometry": {
        "type": "Point",
        "coordinates": [
          25.9832156,
          48.2899837
        ]
      },