{
  "type": "FeatureCollection",
  "generator": "overpass-turbo",
  "copyright": "The data included in this document is from www.openstreetmap.org. The data is made available under ODbL.",
  "timestamp": "2025-05-01T13:15:30Z",
  "features": [
    {
      "type": "Feature",
      "properties": {
        "@id": "way/35266367",
        "amenity": "school",
        "description": "Херсонський навчально-виховний комплекс \"Загальноосвітня школа ІІ ст-ліцей журналістики, економіки та правознавства\" Херсонської міської ради (не працює з інших причин)",
        "name": "Загальноосвітня школа ІІ ст-ліцей журналістики, економіки та правознавства",
        "name:en": "General education school of the 2nd century Lyceum of Journalism, Economics and Law",
        "name:ru": "Общеобразовательная школа II степени – лицей журналистики, экономики и правоведения",
        "name:uk": "Загальноосвітня школа ІІ ст-ліцей журналістики, економіки та правознавства",
        "@geometry": "center"
      },
      "geometry": {
        "type": "Point",
        "coordinates": [
          32.5860151,
          46.6448981
        ]
      },
      "id": "way/35266367"
    },
    {
      "type": "Feature",
      "properties": {
        "@id": "way/35266368",
        "amenity": "university",
        "name": "Херсонський державний аґрарний університет",
        "name:ru": "Херсонский государственный аграрный университет",
        "name:uk": "Херсонський державний аґрарний університет",
        "@geometry": "center"
      },
      "geometry": {
        "type": "Point",
        "coordinates": [
          32.5855407,
          46.6417678
        ]
      },
      "id": "way/35266368"
    },
    {
      "type": "Feature",
      "properties": {
        "@id": "way/91788297",
        "amenity": "school",
        "name": "Школа №3",
        "name:uk": "Школа №3",
        "@geometry": "center"
      },
      "geometry": {
        "type": "Point",
        "coordinates": [
          32.9339955,
          46.1130488
        ]
      },
      "id": "way/91788297"
    },
    {
      "type": "Feature",
      "properties": {
        "@id": "way/96938732",
        "addr:housenumber": "4",
        "addr:street": "Шкільний провулок",
        "amenity": "school",
        "email": "vadimzosh@ukr.net",
        "name": "Вадимський заклад повної загальної середньої освіти\"",
        "name:uk": "Вадимський заклад повної загальної середньої освіти\"",
        "phone": "+380 5530 37 281",
        "source": "Bing",
        "@geometry": "center"
      },
      "geometry": {
        "type": "Point",
        "coordinates": [
          33.5945183,
          46.1865561
        ]
      },
      "id": "way/96938732"
    },
    {
      "type": "Feature",
      "properties": {
        "@id": "way/96938736",
        "leisure": "pitch",
        "source": "Bing",
        "sport": "soccer",
        "@geometry": "center"
      },
      "geometry": {
        "type": "Point",
        "coordinates": [
          33.5913256,
          46.1884351
        ]
      },
      "id": "way/96938736"
    },
    {
      "type": "Feature",
      "properties": {
        "@id": "way/108158686",
        "addr:housenumber": "6",
        "addr:street": "Одеська площа",
        "building": "yes",
        "building:levels": "3",
        "description": "Вокзал закрыт",
        "name": "Річморвокзал",
        "name:ru": "Речморвокзал",
        "name:uk": "Річморвокзал",
        "operator": "Укррічфлот",
        "public_transport": "station",
        "website": "https://ukrrichflot.ua",
        "wheelchair": "limited",
        "@geometry": "center"
      },
      "geometry": {
        "type": "Point",
        "coordinates": [
          32.611718,
          46.6243587
        ]
      },
      "id": "way/108158686"
    },
    {
      "type": "Feature",
      "properties": {
        "@id": "way/114925060",
        "amenity": "school",
        "building": "school",
        "@geometry": "center"
      },
      "geometry": {
        "type": "Point",
        "coordinates": [
          33.1488549,
          46.7941289
        ]
      },
      "id": "way/114925060"
    },
    {
      "type": "Feature",
      "properties": {
        "@id": "way/114926376",
        "building": "yes",
        "shop": "convenience",
        "@geometry": "center"
      },
      "geometry": {
        "type": "Point",
        "coordinates": [
          33.1632277,
          46.7943175
        ]
      },
      "id": "way/114926376"
    },
    {
      "type": "Feature",
      "properties": {
        "@id": "way/114928772",
        "leisure": "pitch",
        "sport": "soccer",
        "@geometry": "center"
      },
      "geometry": {
        "type": "Point",
        "coordinates": [
          33.147628,
          46.7943609
        ]
      },
      "id": "way/114928772"
    },
    {
      "type": "Feature",
      "properties": {
        "@id": "way/114935942",
        "amenity": "school",
        "name": "Школа-інтернат",
        "name:uk": "Школа-інтернат",
        "@geometry": "center"
      },
      "geometry": {
        "type": "Point",
        "coordinates": [
          33.1760603,
          46.7899799
        ]
      },
      "id": "way/114935942"
    },
    {
      "type": "Feature",
      "properties": {
        "@id": "way/115076942",
        "building": "yes",
        "shop": "convenience",
        "@geometry": "center"
      },
      "geometry": {
        "type": "Point",
        "coordinates": [
          33.1569776,
          46.7903429
        ]
      },
      "id": "way/115076942"
    },
    {
      "type": "Feature",
      "properties": {
        "@id": "way/115076943",
        "building": "yes",
        "shop": "convenience",
        "@geometry": "center"
      },
      "geometry": {
        "type": "Point",
        "coordinates": [
          33.1571706,
          46.7903722
        ]
      },
      "id": "way/115076943"
    },
    {
      "type": "Feature",
      "properties": {
        "@id": "way/115077175",
        "leisure": "pitch",
        "@geometry": "center"
      },
      "geometry": {
        "type": "Point",
        "coordinates": [
          33.1752362,
          46.7899826
        ]
      },
      "id": "way/115077175"
    },
    {
      "type": "Feature",
      "properties": {
        "@id": "way/115327159",
        "amenity": "kindergarten",
        "name": "Дитячий садок",
        "name:ru": "Детский сад",
        "name:uk": "Дитячий садок",
        "@geometry": "center"
      },
      "geometry": {
        "type": "Point",
        "coordinates": [
          32.5258171,
          46.0856745
        ]
      },
      "id": "way/115327159"
    },
    {
      "type": "Feature",
      "properties": {
        "@id": "way/115334015",
        "amenity": "school",
        "email": "Lazurneschool@ukr.net",
        "name": "Лазурненська ЗОШ",
        "name:uk": "Лазурненська ЗОШ",
        "official_name": "Лазурненська загальноосвітня школа І-ІІІ ступенів Скадовської районної ради Херсонської області",
        "official_name:uk": "Лазурненська загальноосвітня школа І-ІІІ ступенів Скадовської районної ради Херсонської області",
        "phone": "+380 5537 30 667",
        "short_name": "Лазурненська ЗОШ",
        "short_name:uk": "Лазурненська ЗОШ",
        "website": "http://www.lazurne-zosh.edukit.kherson.ua",
        "@geometry": "center"
      },
      "geometry": {
        "type": "Point",
        "coordinates": [
          32.52619,
          46.0832234
        ]
      },
      "id": "way/115334015"
    },
    {
      "type": "Feature",
      "properties": {
        "@id": "way/115395906",
        "building": "yes",
        "building:levels": "1",
        "shop": "supermarket",
        "@geometry": "center"
      },
      "geometry": {
        "type": "Point",
        "coordinates": [
          32.5246647,
          46.0849697
        ]
      },
      "id": "way/115395906"
    },
    {
      "type": "Feature",
      "properties": {
        "@id": "way/115395909",
        "leisure": "park",
        "@geometry": "center"
      },
      "geometry": {
        "type": "Point",
        "coordinates": [
          32.527804,
          46.0845663
        ]
      },
      "id": "way/115395909"
    },
    {
      "type": "Feature",
      "properties": {
        "@id": "way/115395910",
        "building": "yes",
        "building:levels": "2",
        "name": "Супер Сам",
        "name:uk": "Супер Сам",
        "shop": "supermarket",
        "@geometry": "center"
      },
      "geometry": {
        "type": "Point",
        "coordinates": [
          32.5297123,
          46.0847642
        ]
      },
      "id": "way/115395910"
    },
    {
      "type": "Feature",
      "properties": {
        "@id": "way/115744561",
        "amenity": "school",
        "name": "Львівська середня школа",
        "name:uk": "Львівська середня школа",
        "@geometry": "center"
      },
      "geometry": {
        "type": "Point",
        "coordinates": [
          33.1486681,
          46.7944087
        ]
      },
      "id": "way/115744561"
    },
    {
      "type": "Feature",
      "properties": {
        "@id": "way/116810790",
        "leisure": "park",
        "name": "Шевченківський парк",
        "name:uk": "Шевченківський парк",
        "note": "До 2014 г. парк им. В. И. Ленина",
        "wikidata": "Q12138934",
        "wikipedia": "uk:Шевченківський парк (Херсон)",
        "@geometry": "center"
      },
      "geometry": {
        "type": "Point",
        "coordinates": [
          32.6202356,
          46.6350861
        ]
      },
      "id": "way/116810790"
    },
    {
      "type": "Feature",
      "properties": {
        "@id": "way/116904841",
        "shop": "convenience",
        "@geometry": "center"
      },
      "geometry": {
        "type": "Point",
        "coordinates": [
          33.1767555,
          46.7917339
        ]
      },
      "id": "way/116904841"
    },
    {
      "type": "Feature",
      "properties": {
        "@id": "way/119419143",
        "name": "Бригантина",
        "name:uk": "Бригантина",
        "opening_hours": "08:30-22:00",
        "shop": "convenience",
        "@geometry": "center"
      },
      "geometry": {
        "type": "Point",
        "coordinates": [
          34.8439729,
          46.0054901
        ]
      },
      "id": "way/119419143"
    },
    {
      "type": "Feature",
      "properties": {
        "@id": "way/119419152",
        "building": "yes",
        "shop": "convenience",
        "@geometry": "center"
      },
      "geometry": {
        "type": "Point",
        "coordinates": [
          34.8341382,
          46.0325456
        ]
      },
      "id": "way/119419152"
    },
    {
      "type": "Feature",
      "properties": {
        "@id": "way/119419193",
        "amenity": "parking",
        "parking": "surface",
        "@geometry": "center"
      },
      "geometry": {
        "type": "Point",
        "coordinates": [
          34.8455995,
          45.9993027
        ]
      },
      "id": "way/119419193"
    },
    {
      "type": "Feature",
      "properties": {
        "@id": "way/119419227",
        "shop": "convenience",
        "@geometry": "center"
      },
      "geometry": {
        "type": "Point",
        "coordinates": [
          34.8384317,
          46.0318675
        ]
      },
      "id": "way/119419227"
    },
    {
      "type": "Feature",
      "properties": {
        "@id": "way/119419256",
        "amenity": "kindergarten",
        "name": "Дошкільний навчальний заклад \"Ромашка\"",
        "name:uk": "Дошкільний навчальний заклад \"Ромашка\"",
        "@geometry": "center"
      },
      "geometry": {
        "type": "Point",
        "coordinates": [
          34.8314077,
          46.0324168
        ]
      },
      "id": "way/119419256"
    },
    {
      "type": "Feature",
      "properties": {
        "@id": "way/119419267",
        "building": "yes",
        "shop": "convenience",
        "@geometry": "center"
      },
      "geometry": {
        "type": "Point",
        "coordinates": [
          34.8423183,
          46.0158031
        ]
      },
      "id": "way/119419267"
    },
    {
      "type": "Feature",
      "properties": {
        "@id": "way/119419268",
        "shop": "convenience",
        "@geometry": "center"
      },
      "geometry": {
        "type": "Point",
        "coordinates": [
          34.8452827,
          46.0013461
        ]
      },
      "id": "way/119419268"
    },
    {
      "type": "Feature",
      "properties": {
        "@id": "way/119419282",
        "building": "yes",
        "shop": "convenience",
        "@geometry": "center"
      },
      "geometry": {
        "type": "Point",
        "coordinates": [
          34.8361052,
          46.0326489
        ]
      },
      "id": "way/119419282"
    },
    {
      "type": "Feature",
      "properties": {
        "@id": "way/119419346",
        "amenity": "parking",
        "fee": "yes",
        "parking": "surface",
        "@geometry": "center"
      },
      "geometry": {
        "type": "Point",
        "coordinates": [
          34.8473821,
          45.9916729
        ]
      },
      "id": "way/119419346"
    },
    {
      "type": "Feature",
      "properties": {
        "@id": "way/119894522",
        "shop": "supermarket",
        "@geometry": "center"
      },
      "geometry": {
        "type": "Point",
        "coordinates": [
          33.1501592,
          46.7969041
        ]
      },
      "id": "way/119894522"
    },
    {
      "type": "Feature",
      "properties": {
        "@id": "way/121525198",
        "building": "yes",
        "shop": "convenience",
        "@geometry": "center"
      },
      "geometry": {
        "type": "Point",
        "coordinates": [
          34.8369065,
          46.0371195
        ]
      },
      "id": "way/121525198"
    },
    {
      "type": "Feature",
      "properties": {
        "@id": "way/124990628",
        "amenity": "kindergarten",
        "name": "Ясла-садок №2",
        "name:uk": "Ясла-садок №2",
        "source": "Bing",
        "@geometry": "center"
      },
      "geometry": {
        "type": "Point",
        "coordinates": [
          32.746368,
          46.6228749
        ]
      },
      "id": "way/124990628"
    },
    {
      "type": "Feature",
      "properties": {
        "@id": "way/124990641",
        "amenity": "school",
        "capacity": "1176",
        "email": "sekretar@school4.org.ua",
        "name": "Олешківська спеціалізована школа І-ІІІ ступенів №4",
        "name:uk": "Олешківська спеціалізована школа І-ІІІ ступенів №4",
        "official_name": "Олешківська спеціалізована школа І-ІІІ ступенів № 4 з поглибленим вивченням предметів природничо-математичного напряму Олешківської районної ради Херсонської області",
        "official_name:uk": "Олешківська спеціалізована школа І-ІІІ ступенів № 4 з поглибленим вивченням предметів природничо-математичного напряму Олешківської районної ради Херсонської області",
        "phone": "+380 5542 22 845",
        "short_name": "Олешківська спеціалізована школа І-ІІІ ступенів №4",
        "short_name:uk": "Олешківська спеціалізована школа І-ІІІ ступенів №4",
        "source": "Bing",
        "website": "https://www.school4.org.ua",
        "@geometry": "center"
      },
      "geometry": {
        "type": "Point",
        "coordinates": [
          32.7472065,
          46.6256795
        ]
      },
      "id": "way/124990641"
    },
    {
      "type": "Feature",
      "properties": {
        "@id": "way/124990649",
        "amenity": "school",
        "name": "Школа №2",
        "name:uk": "Школа №2",
        "source": "Bing",
        "@geometry": "center"
      },
      "geometry": {
        "type": "Point",
        "coordinates": [
          32.7223191,
          46.6228888
        ]
      },
      "id": "way/124990649"
    },
    {
      "type": "Feature",
      "properties": {
        "@id": "way/124990667",
        "leisure": "park",
        "name": "Парк Слави",
        "name:ru": "Парк Славы",
        "name:uk": "Парк Слави",
        "source": "Bing",
        "@geometry": "center"
      },
      "geometry": {
        "type": "Point",
        "coordinates": [
          32.7198847,
          46.6189995
        ]
      },
      "id": "way/124990667"
    },
    {
      "type": "Feature",
      "properties": {
        "@id": "way/124990669",
        "amenity": "hospital",
        "healthcare": "hospital",
        "@geometry": "center"
      },
      "geometry": {
        "type": "Point",
        "coordinates": [
          32.7219727,
          46.6188683
        ]
      },
      "id": "way/124990669"
    },
    {
      "type": "Feature",
      "properties": {
        "@id": "way/125001573",
        "amenity": "school",
        "name": "Олешківська гімназія",
        "name:uk": "Олешківська гімназія",
        "source": "Bing",
        "@geometry": "center"
      },
      "geometry": {
        "type": "Point",
        "coordinates": [
          32.7245105,
          46.6262856
        ]
      },
      "id": "way/125001573"
    },
    {
      "type": "Feature",
      "properties": {
        "@id": "way/125001581",
        "leisure": "park",
        "name": "Старий парк",
        "name:ru": "Старый парк",
        "name:uk": "Старий парк",
        "source": "Bing",
        "@geometry": "center"
      },
      "geometry": {
        "type": "Point",
        "coordinates": [
          32.717559,
          46.614011
        ]
      },
      "id": "way/125001581"
    },
    {
      "type": "Feature",
      "properties": {
        "@id": "way/125001584",
        "leisure": "park",
        "source": "Bing",
        "@geometry": "center"
      },
      "geometry": {
        "type": "Point",
        "coordinates": [
          32.7142113,
          46.6259503
        ]
      },
      "id": "way/125001584"
    },
    {
      "type": "Feature",
      "properties": {
        "@id": "way/125004681",
        "amenity": "parking",
        "source": "Bing",
        "@geometry": "center"
      },
      "geometry": {
        "type": "Point",
        "coordinates": [
          32.7936739,
          46.6152745
        ]
      },
      "id": "way/125004681"
    },
    {
      "type": "Feature",
      "properties": {
        "@id": "way/125004684",
        "amenity": "parking",
        "source": "Bing",
        "@geometry": "center"
      },
      "geometry": {
        "type": "Point",
        "coordinates": [
          32.7957069,
          46.6138904
        ]
      },
      "id": "way/125004684"
    },
    {
      "type": "Feature",
      "properties": {
        "@id": "way/125018015",
        "amenity": "parking",
        "source": "Bing",
        "@geometry": "center"
      },
      "geometry": {
        "type": "Point",
        "coordinates": [
          32.9258064,
          46.5532094
        ]
      },
      "id": "way/125018015"
    },
    {
      "type": "Feature",
      "properties": {
        "@id": "way/125018026",
        "amenity": "parking",
        "source": "Bing",
        "@geometry": "center"
      },
      "geometry": {
        "type": "Point",
        "coordinates": [
          32.9271808,
          46.5528793
        ]
      },
      "id": "way/125018026"
    },
    {
      "type": "Feature",
      "properties": {
        "@id": "way/125018032",
        "leisure": "park",
        "source": "Bing",
        "@geometry": "center"
      },
      "geometry": {
        "type": "Point",
        "coordinates": [
          32.9234737,
          46.5521762
        ]
      },
      "id": "way/125018032"
    },
    {
      "type": "Feature",
      "properties": {
        "@id": "way/125018033",
        "leisure": "pitch",
        "source": "Bing",
        "@geometry": "center"
      },
      "geometry": {
        "type": "Point",
        "coordinates": [
          32.927945,
          46.5535621
        ]
      },
      "id": "way/125018033"
    },
    {
      "type": "Feature",
      "properties": {
        "@id": "way/125018363",
        "amenity": "parking",
        "source": "Bing",
        "@geometry": "center"
      },
      "geometry": {
        "type": "Point",
        "coordinates": [
          32.9116353,
          46.569867
        ]
      },
      "id": "way/125018363"
    },
    {
      "type": "Feature",
      "properties": {
        "@id": "way/125063759",
        "leisure": "park",
        "source": "Bing",
        "@geometry": "center"
      },
      "geometry": {
        "type": "Point",
        "coordinates": [
          33.0730217,
          46.4877986
        ]
      },
      "id": "way/125063759"
    },
    {
      "type": "Feature",
      "properties": {
        "@id": "way/125069363",
        "leisure": "park",
        "source": "Bing",
        "@geometry": "center"
      },
      "geometry": {
        "type": "Point",
        "coordinates": [
          32.9741212,
          46.4883325
        ]
      },
      "id": "way/125069363"
    },
    {
      "type": "Feature",
      "properties": {
        "@id": "way/125069441",
        "amenity": "school",
        "source": "Bing",
        "@geometry": "center"
      },
      "geometry": {
        "type": "Point",
        "coordinates": [
          32.9830325,
          46.4909951
        ]
      },
      "id": "way/125069441"
    },
    {
      "type": "Feature",
      "properties": {
        "@id": "way/127294989",
        "addr:housenumber": "6",
        "addr:street": "вулиця Володимира Вернадського",
        "amenity": "school",
        "name": "Школа-сад № 40",
        "name:en": "Kindergarten School No. 40",
        "name:ru": "Школа-сад №40",
        "name:uk": "Школа-сад № 40",
        "nat_name": "Молодіжна загальноосвітня школа-сад І-ІІ ступенів №40 Херсонської міської ради (діяльність призупинена)",
        "source": "Bing",
        "website": "https://40sch-sad.jimdofree.com/",
        "@geometry": "center"
      },
      "geometry": {
        "type": "Point",
        "coordinates": [
          32.6880653,
          46.7332793
        ]
      },
      "id": "way/127294989"
    },
    {
      "type": "Feature",
      "properties": {
        "@id": "way/127349475",
        "amenity": "parking",
        "source": "Bing",
        "@geometry": "center"
      },
      "geometry": {
        "type": "Point",
        "coordinates": [
          32.5458782,
          46.7156624
        ]
      },
      "id": "way/127349475"
    },
    {
      "type": "Feature",
      "properties": {
        "@id": "way/128734602",
        "amenity": "school",
        "source": "Bing",
        "@geometry": "center"
      },
      "geometry": {
        "type": "Point",
        "coordinates": [
          32.3447156,
          46.7905499
        ]
      },
      "id": "way/128734602"
    },
    {
      "type": "Feature",
      "properties": {
        "@id": "way/128734604",
        "amenity": "kindergarten",
        "source": "Bing",
        "@geometry": "center"
      },
      "geometry": {
        "type": "Point",
        "coordinates": [
          32.3448353,
          46.789466
        ]
      },
      "id": "way/128734604"
    },
    {
      "type": "Feature",
      "properties": {
        "@id": "way/128976415",
        "building": "yes",
        "shop": "convenience",
        "source": "Bing",
        "@geometry": "center"
      },
      "geometry": {
        "type": "Point",
        "coordinates": [
          32.7313602,
          46.6766752
        ]
      },
      "id": "way/128976415"
    },
    {
      "type": "Feature",
      "properties": {
        "@id": "way/128984409",
        "amenity": "parking",
        "source": "Bing",
        "@geometry": "center"
      },
      "geometry": {
        "type": "Point",
        "coordinates": [
          32.7535035,
          46.6275382
        ]
      },
      "id": "way/128984409"
    },
    {
      "type": "Feature",
      "properties": {
        "@id": "way/128984414",
        "amenity": "bus_station",
        "building": "yes",
        "bus": "yes",
        "name": "Автовокзал",
        "name:uk": "Автовокзал",
        "public_transport": "station",
        "source": "Bing",
        "@geometry": "center"
      },
      "geometry": {
        "type": "Point",
        "coordinates": [
          32.7506207,
          46.6252534
        ]
      },
      "id": "way/128984414"
    },
    {
      "type": "Feature",
      "properties": {
        "@id": "way/130124406",
        "leisure": "park",
        "@geometry": "center"
      },
      "geometry": {
        "type": "Point",
        "coordinates": [
          33.1878785,
          46.7916346
        ]
      },
      "id": "way/130124406"
    },
    {
      "type": "Feature",
      "properties": {
        "@id": "way/130124407",
        "leisure": "park",
        "@geometry": "center"
      },
      "geometry": {
        "type": "Point",
        "coordinates": [
          33.1879054,
          46.7928318
        ]
      },
      "id": "way/130124407"
    },
    {
      "type": "Feature",
      "properties": {
        "@id": "way/130124408",
        "leisure": "park",
        "@geometry": "center"
      },
      "geometry": {
        "type": "Point",
        "coordinates": [
          33.1867546,
          46.7898513
        ]
      },
      "id": "way/130124408"
    },
    {
      "type": "Feature",
      "properties": {
        "@id": "way/130659697",
        "leisure": "pitch",
        "sport": "soccer",
        "@geometry": "center"
      },
      "geometry": {
        "type": "Point",
        "coordinates": [
          32.620505,
          46.6377953
        ]
      },
      "id": "way/130659697"
    },
    {
      "type": "Feature",
      "properties": {
        "@id": "way/130756582",
        "addr:housenumber": "47",
        "building": "yes",
        "shop": "mall",
        "wheelchair": "limited",
        "@geometry": "center"
      },
      "geometry": {
        "type": "Point",
        "coordinates": [
          32.6132327,
          46.640441
        ]
      },
      "id": "way/130756582"
    },
    {
      "type": "Feature",
      "properties": {
        "@id": "way/130757404",
        "addr:housenumber": "49",
        "addr:street": "проспект Незалежності",
        "building": "yes",
        "description": "Центральний універмаг",
        "name": "ЦУМ",
        "name:uk": "ЦУМ",
        "shop": "mall",
        "@geometry": "center"
      },
      "geometry": {
        "type": "Point",
        "coordinates": [
          32.6129775,
          46.6411091
        ]
      },
      "id": "way/130757404"
    },
    {
      "type": "Feature",
      "properties": {
        "@id": "way/130763567",
        "addr:housenumber": "114г",
        "amenity": "parking",
        "@geometry": "center"
      },
      "geometry": {
        "type": "Point",
        "coordinates": [
          32.6506448,
          46.6597297
        ]
      },
      "id": "way/130763567"
    },
    {
      "type": "Feature",
      "properties": {
        "@id": "way/130853119",
        "addr:housenumber": "47",
        "addr:street": "Інженера Корсакова провулок",
        "amenity": "university",
        "building": "yes",
        "@geometry": "center"
      },
      "geometry": {
        "type": "Point",
        "coordinates": [
          32.6250628,
          46.644573
        ]
      },
      "id": "way/130853119"
    },
    {
      "type": "Feature",
      "properties": {
        "@id": "way/130861823",
        "leisure": "pitch",
        "@geometry": "center"
      },
      "geometry": {
        "type": "Point",
        "coordinates": [
          32.6395912,
          46.6677051
        ]
      },
      "id": "way/130861823"
    },
    {
      "type": "Feature",
      "properties": {
        "@id": "way/130871142",
        "addr:postcode": "73000",
        "leisure": "pitch",
        "sport": "soccer",
        "@geometry": "center"
      },
      "geometry": {
        "type": "Point",
        "coordinates": [
          32.606775,
          46.6672286
        ]
      },
      "id": "way/130871142"
    },
    {
      "type": "Feature",
      "properties": {
        "@id": "way/130987474",
        "addr:housenumber": "27-А",
        "addr:postcode": "73033",
        "addr:street": "Будівельників проспект",
        "brand": "Сільпо",
        "brand:en": "Silpo",
        "brand:uk": "Сільпо",
        "brand:wikidata": "Q4419434",
        "brand:wikipedia": "uk:Сільпо (торговельна мережа)",
        "building": "yes",
        "contact:email": "program@silpo.ua",
        "contact:facebook": "https://www.facebook.com/silpo",
        "contact:instagram": "https://www.instagram.com/silpoua/",
        "contact:telegram": "https://t.me/silposilpo",
        "contact:viber": "https://invite.viber.com/?g2=AQAt15SGGIlJkUpcckQJ1mAV5nsCAESEJ6JHLm0UCKWWPGQtSUDjRrHVW8Lmj4Xd&lang=uk",
        "contact:website": "https://silpo.ua",
        "name": "Сільпо",
        "name:en": "Silpo",
        "name:uk": "Сільпо",
        "opening_hours": "Mo-Su 8:30-19:00",
        "payment:cash": "yes",
        "payment:debit_cards": "yes",
        "payment:mastercard": "yes",
        "payment:visa": "yes",
        "phone:UA": "0 800 301 707",
        "shop": "supermarket",
        "@geometry": "center"
      },
      "geometry": {
        "type": "Point",
        "coordinates": [
          32.5661062,
          46.6510041
        ]
      },
      "id": "way/130987474"
    },
    {
      "type": "Feature",
      "properties": {
        "@id": "way/131711025",
        "amenity": "hospital",
        "healthcare": "hospital",
        "name": "Санаторій \"Гопри\"",
        "name:ru": "Санаторий \"Гопри\"",
        "name:uk": "Санаторій \"Гопри\"",
        "source": "Bing",
        "@geometry": "center"
      },
      "geometry": {
        "type": "Point",
        "coordinates": [
          32.5413045,
          46.5289667
        ]
      },
      "id": "way/131711025"
    },
    {
      "type": "Feature",
      "properties": {
        "@id": "way/131711356",
        "amenity": "school",
        "name": "Школа №1",
        "name:uk": "Школа №1",
        "source": "Bing",
        "@geometry": "center"
      },
      "geometry": {
        "type": "Point",
        "coordinates": [
          32.5185215,
          46.5239542
        ]
      },
      "id": "way/131711356"
    },
    {
      "type": "Feature",
      "properties": {
        "@id": "way/131712203",
        "amenity": "school",
        "name": "Школа №4",
        "name:uk": "Школа №4",
        "source": "Bing",
        "@geometry": "center"
      },
      "geometry": {
        "type": "Point",
        "coordinates": [
          32.5216181,
          46.5271746
        ]
      },
      "id": "way/131712203"
    },
    {
      "type": "Feature",
      "properties": {
        "@id": "way/131712209",
        "amenity": "school",
        "name": "Школа №3",
        "name:uk": "Школа №3",
        "source": "Bing",
        "@geometry": "center"
      },
      "geometry": {
        "type": "Point",
        "coordinates": [
          32.5330781,
          46.5350458
        ]
      },
      "id": "way/131712209"
    },
    {
      "type": "Feature",
      "properties": {
        "@id": "way/131712211",
        "amenity": "hospital",
        "healthcare": "hospital",
        "name": "Центральна районна лікарня",
        "name:ru": "Центральная районная больница",
        "name:uk": "Центральна районна лікарня",
        "source": "Bing",
        "@geometry": "center"
      },
      "geometry": {
        "type": "Point",
        "coordinates": [
          32.5394045,
          46.5348652
        ]
      },
      "id": "way/131712211"
    },
    {
      "type": "Feature",
      "properties": {
        "@id": "way/131712863",
        "addr:housenumber": "11",
        "addr:street": "1-го Травня вулиця",
        "amenity": "bus_station",
        "bus": "yes",
        "name": "Гола Пристань",
        "name:uk": "Гола Пристань",
        "phone": "+380 5539 26 244",
        "public_transport": "station",
        "source": "Bing",
        "@geometry": "center"
      },
      "geometry": {
        "type": "Point",
        "coordinates": [
          32.5359289,
          46.5362332
        ]
      },
      "id": "way/131712863"
    },
    {
      "type": "Feature",
      "properties": {
        "@id": "way/131712871",
        "amenity": "school",
        "email": "goprigimnaz@ukr.net",
        "name": "Голопристанська гімназія",
        "name:en": "Hola Prystan Gymnasium",
        "name:ru": "Голопристанская гимназия",
        "name:uk": "Голопристанська гімназія",
        "official_name": "Голопристанський навчально-виховний комплекс \"Гімназія-спеціалізована школа І ступеня з поглибленим вивченням предметів художнього профілю\"",
        "official_name:uk": "Голопристанський навчально-виховний комплекс \"Гімназія-спеціалізована школа І ступеня з поглибленим вивченням предметів художнього профілю\"",
        "phone": "+380 5539 78 534",
        "@geometry": "center"
      },
      "geometry": {
        "type": "Point",
        "coordinates": [
          32.5523168,
          46.525476
        ]
      },
      "id": "way/131712871"
    },
    {
      "type": "Feature",
      "properties": {
        "@id": "way/131713507",
        "amenity": "hospital",
        "building": "yes",
        "building:levels": "1",
        "healthcare": "hospital",
        "name": "Поліклініка",
        "name:ru": "Поликлиника",
        "name:uk": "Поліклініка",
        "source": "Bing",
        "@geometry": "center"
      },
      "geometry": {
        "type": "Point",
        "coordinates": [
          32.5428168,
          46.5351641
        ]
      },
      "id": "way/131713507"
    },
    {
      "type": "Feature",
      "properties": {
        "@id": "way/131722243",
        "amenity": "kindergarten",
        "source": "Bing",
        "@geometry": "center"
      },
      "geometry": {
        "type": "Point",
        "coordinates": [
          32.7175443,
          46.6200868
        ]
      },
      "id": "way/131722243"
    },
    {
      "type": "Feature",
      "properties": {
        "@id": "way/131722245",
        "amenity": "kindergarten",
        "source": "Bing",
        "@geometry": "center"
      },
      "geometry": {
        "type": "Point",
        "coordinates": [
          32.7141553,
          46.6228406
        ]
      },
      "id": "way/131722245"
    },
    {
      "type": "Feature",
      "properties": {
        "@id": "way/134948213",
        "addr:housenumber": "1",
        "addr:postcode": "73000",
        "addr:street": "Полковника Кедровського вулиця",
        "amenity": "bus_station",
        "bus": "yes",
        "check_date": "2024-03-18",
        "mobile": "+380 50 687 40 48",
        "name": "Автовокзал Херсон",
        "name:de": "Busbahnhof Kherson",
        "name:en": "Bus station Kherson",
        "name:es": "Estación de autobuses de Jerson",
        "name:fi": "Khersonin linja-autoasema",
        "name:ja": "バス停ヘルソン",
        "name:lv": "Autobusu stacija Hersona",
        "name:ru": "Автовокзал Херсон",
        "name:uk": "Автовокзал Херсон",
        "public_transport": "station",
        "website": "https://khersonbus.pythonanywhere.com/650100",
        "wheelchair": "limited",
        "@geometry": "center"
      },
      "geometry": {
        "type": "Point",
        "coordinates": [
          32.5937267,
          46.6604817
        ]
      },
      "id": "way/134948213"
    },
    {
      "type": "Feature",
      "properties": {
        "@id": "way/135300136",
        "amenity": "kindergarten",
        "name": "Дитячий садок",
        "name:uk": "Дитячий садок",
        "@geometry": "center"
      },
      "geometry": {
        "type": "Point",
        "coordinates": [
          32.7447324,
          46.6282622
        ]
      },
      "id": "way/135300136"
    },
    {
      "type": "Feature",
      "properties": {
        "@id": "way/138913920",
        "leisure": "park",
        "name": "Шуменський парк",
        "name:en": "Shumenskyi Park",
        "name:ru": "Шуменский парк",
        "name:uk": "Шуменський парк",
        "old_name": "Парк імені Димитрова",
        "old_name:en": "Dimitrov Park",
        "old_name:ru": "Парк имени Димитрова",
        "old_name:uk": "Парк імені Димитрова",
        "@geometry": "center"
      },
      "geometry": {
        "type": "Point",
        "coordinates": [
          32.5604297,
          46.6528321
        ]
      },
      "id": "way/138913920"
    },
    {
      "type": "Feature",
      "properties": {
        "@id": "way/139241360",
        "addr:housenumber": "30",
        "addr:street": "Дорофєєва вулиця",
        "brand": "Велмарт",
        "brand:wikidata": "Q121004370",
        "building": "yes",
        "name": "Велмарт",
        "name:uk": "Велмарт",
        "old_name": "Велика кишеня",
        "opening_hours": "08:00-23:00",
        "shop": "supermarket",
        "@geometry": "center"
      },
      "geometry": {
        "type": "Point",
        "coordinates": [
          32.5738397,
          46.6211744
        ]
      },
      "id": "way/139241360"
    },
    {
      "type": "Feature",
      "properties": {
        "@id": "way/142887416",
        "leisure": "pitch",
        "sport": "soccer",
        "@geometry": "center"
      },
      "geometry": {
        "type": "Point",
        "coordinates": [
          33.7465416,
          46.2938462
        ]
      },
      "id": "way/142887416"
    },
    {
      "type": "Feature",
      "properties": {
        "@id": "way/143024647",
        "addr:housenumber": "12",
        "building": "yes",
        "name": "Фреш",
        "name:uk": "Фреш",
        "shop": "supermarket",
        "@geometry": "center"
      },
      "geometry": {
        "type": "Point",
        "coordinates": [
          32.5827358,
          46.6212272
        ]
      },
      "id": "way/143024647"
    },
    {
      "type": "Feature",
      "properties": {
        "@id": "way/146016232",
        "image": "https://commons.wikimedia.org/wiki/Category:Kherson_fortress#/media/File:Kherson-Fortress-Park.jpg",
        "leisure": "park",
        "name": "парк Херсонська Фортеця",
        "name:cs": "Chersonská pevnost",
        "name:en": "Kherson Fortress Park",
        "name:ru": "парк Херсонская Крепость",
        "name:uk": "парк Херсонська Фортеця",
        "old_name": "Парк імені Ленінського Комсомолу",
        "wikidata": "Q12167198",
        "wikipedia": "uk:Херсонська фортеця",
        "@geometry": "center"
      },
      "geometry": {
        "type": "Point",
        "coordinates": [
          32.6251515,
          46.6408555
        ]
      },
      "id": "way/146016232"
    },
    {
      "type": "Feature",
      "properties": {
        "@id": "way/146016516",
        "leisure": "park",
        "name": "парк ім. Ю.Шумського",
        "name:uk": "парк ім. Ю.Шумського",
        "@geometry": "center"
      },
      "geometry": {
        "type": "Point",
        "coordinates": [
          32.630841,
          46.6469022
        ]
      },
      "id": "way/146016516"
    },
    {
      "type": "Feature",
      "properties": {
        "@id": "way/146340411",
        "shop": "convenience",
        "@geometry": "center"
      },
      "geometry": {
        "type": "Point",
        "coordinates": [
          32.654968,
          46.6685549
        ]
      },
      "id": "way/146340411"
    },
    {
      "type": "Feature",
      "properties": {
        "@id": "way/150832008",
        "building": "yes",
        "shop": "convenience",
        "@geometry": "center"
      },
      "geometry": {
        "type": "Point",
        "coordinates": [
          33.3343573,
          47.1712738
        ]
      },
      "id": "way/150832008"
    },
    {
      "type": "Feature",
      "properties": {
        "@id": "way/151523461",
        "leisure": "park",
        "@geometry": "center"
      },
      "geometry": {
        "type": "Point",
        "coordinates": [
          32.6464773,
          46.6556891
        ]
      },
      "id": "way/151523461"
    },
    {
      "type": "Feature",
      "properties": {
        "@id": "way/151523463",
        "leisure": "playground",
        "name": "Дитяче містечко",
        "name:uk": "Дитяче містечко",
        "@geometry": "center"
      },
      "geometry": {
        "type": "Point",
        "coordinates": [
          32.6516312,
          46.6550319
        ]
      },
      "id": "way/151523463"
    },
    {
      "type": "Feature",
      "properties": {
        "@id": "way/151523465",
        "leisure": "park",
        "name": "Дніпровський парк",
        "name:uk": "Дніпровський парк",
        "@geometry": "center"
      },
      "geometry": {
        "type": "Point",
        "coordinates": [
          32.6490767,
          46.65407
        ]
      },
      "id": "way/151523465"
    },
    {
      "type": "Feature",
      "properties": {
        "@id": "way/151525418",
        "addr:city": "Херсон",
        "addr:postcode": "73039",
        "amenity": "school",
        "building": "school",
        "building:levels": "4",
        "name": "Школа №56",
        "name:uk": "Школа №56",
        "@geometry": "center"
      },
      "geometry": {
        "type": "Point",
        "coordinates": [
          32.6171794,
          46.667075
        ]
      },
      "id": "way/151525418"
    },
    {
      "type": "Feature",
      "properties": {
        "@id": "way/151529217",
        "leisure": "pitch",
        "@geometry": "center"
      },
      "geometry": {
        "type": "Point",
        "coordinates": [
          32.6409405,
          46.658956
        ]
      },
      "id": "way/151529217"
    },
    {
      "type": "Feature",
      "properties": {
        "@id": "way/151594179",
        "leisure": "park",
        "@geometry": "center"
      },
      "geometry": {
        "type": "Point",
        "coordinates": [
          32.650357,
          46.6655169
        ]
      },
      "id": "way/151594179"
    },
    {
      "type": "Feature",
      "properties": {
        "@id": "way/151594180",
        "leisure": "park",
        "@geometry": "center"
      },
      "geometry": {
        "type": "Point",
        "coordinates": [
          32.6553143,
          46.6626995
        ]
      },
      "id": "way/151594180"
    },
    {
      "type": "Feature",
      "properties": {
        "@id": "way/151594181",
        "leisure": "park",
        "@geometry": "center"
      },
      "geometry": {
        "type": "Point",
        "coordinates": [
          32.6564083,
          46.660385
        ]
      },
      "id": "way/151594181"
    },
    {
      "type": "Feature",
      "properties": {
        "@id": "way/151595572",
        "leisure": "pitch",
        "sport": "soccer",
        "@geometry": "center"
      },
      "geometry": {
        "type": "Point",
        "coordinates": [
          32.6507339,
          46.658064
        ]
      },
      "id": "way/151595572"
    },
    {
      "type": "Feature",
      "properties": {
        "@id": "way/152196950",
        "amenity": "school",
        "name": "Школа № 1",
        "name:uk": "Школа № 1",
        "@geometry": "center"
      },
      "geometry": {
        "type": "Point",
        "coordinates": [
          32.5570223,
          46.6475623
        ]
      },
      "id": "way/152196950"
    },
    {
      "type": "Feature",
      "properties": {
        "@id": "way/159061254",
        "addr:housenumber": "9",
        "addr:postcode": "73011",
        "addr:street": "вулиця Сухарна",
        "amenity": "school",
        "email": "school5.ks@ukr.net",
        "name": "Херсонська гімназія №5 Херсонської міської ради",
        "name:en": "Kherson Gymnasium No. 5 of the Kherson City Council",
        "name:ru": "Херсонская гимназия №5 Херсонского городского совета",
        "name:uk": "Херсонська гімназія №5 Херсонської міської ради",
        "phone": "+380 552 46 52 12",
        "@geometry": "center"
      },
      "geometry": {
        "type": "Point",
        "coordinates": [
          32.5811876,
          46.6371137
        ]
      },
      "id": "way/159061254"
    },
    {
      "type": "Feature",
      "properties": {
        "@id": "way/159208940",
        "addr:city": "Херсон",
        "addr:housenumber": "82",
        "addr:postcode": "73011",
        "addr:street": "Фрітаун вулиця",
        "amenity": "school",
        "name": "Школа №46",
        "name:uk": "Школа №46",
        "@geometry": "center"
      },
      "geometry": {
        "type": "Point",
        "coordinates": [
          32.5777322,
          46.6438581
        ]
      },
      "id": "way/159208940"
    },
    {
      "type": "Feature",
      "properties": {
        "@id": "way/159538010",
        "amenity": "school",
        "capacity": "700",
        "email": "ch-nvk@ukr.net",
        "name": "Чорнобаївський ліцей",
        "name:uk": "Чорнобаївський ліцей",
        "official_name": "Чорнобаївський ліцей Чорнобаївської сільської ради Херсонського району Херсонської області",
        "phone": "+380 552 77 7364",
        "@geometry": "center"
      },
      "geometry": {
        "type": "Point",
        "coordinates": [
          32.548499,
          46.693622
        ]
      },
      "id": "way/159538010"
    },
    {
      "type": "Feature",
      "properties": {
        "@id": "way/159567650",
        "addr:postcode": "75024",
        "amenity": "kindergarten",
        "building": "kindergarten",
        "name": "Дитячий садок",
        "name:uk": "Дитячий садок",
        "@geometry": "center"
      },
      "geometry": {
        "type": "Point",
        "coordinates": [
          32.5459975,
          46.6920753
        ]
      },
      "id": "way/159567650"
    },
    {
      "type": "Feature",
      "properties": {
        "@id": "way/159576276",
        "addr:postcode": "75024",
        "shop": "mall",
        "@geometry": "center"
      },
      "geometry": {
        "type": "Point",
        "coordinates": [
          32.5442685,
          46.6931068
        ]
      },
      "id": "way/159576276"
    },
    {
      "type": "Feature",
      "properties": {
        "@id": "way/159705781",
        "addr:postcode": "75024",
        "addr:street": "Херсонська вулиця",
        "building": "yes",
        "name": "Магазин 24 години",
        "name:uk": "Магазин 24 години",
        "shop": "convenience",
        "@geometry": "center"
      },
      "geometry": {
        "type": "Point",
        "coordinates": [
          32.5449117,
          46.6913119
        ]
      },
      "id": "way/159705781"
    },
    {
      "type": "Feature",
      "properties": {
        "@id": "way/159706013",
        "addr:postcode": "75024",
        "addr:street": "Херсонська вулиця",
        "name": "Магазин Люкс",
        "name:uk": "Магазин Люкс",
        "shop": "convenience",
        "@geometry": "center"
      },
      "geometry": {
        "type": "Point",
        "coordinates": [
          32.5416511,
          46.6914288
        ]
      },
      "id": "way/159706013"
    },
    {
      "type": "Feature",
      "properties": {
        "@id": "way/159719805",
        "addr:postcode": "75024",
        "addr:street": "Херсонська вулиця",
        "name": "Магазин Надія",
        "name:uk": "Магазин Надія",
        "shop": "convenience",
        "@geometry": "center"
      },
      "geometry": {
        "type": "Point",
        "coordinates": [
          32.5532576,
          46.691539
        ]
      },
      "id": "way/159719805"
    },
    {
      "type": "Feature",
      "properties": {
        "@id": "way/159728468",
        "amenity": "hospital",
        "healthcare": "hospital",
        "name": "name:uk=Поліклініка",
        "name:ru": "Поликлиника",
        "name:uk": "Поліклініка",
        "@geometry": "center"
      },
      "geometry": {
        "type": "Point",
        "coordinates": [
          32.4438205,
          46.6233509
        ]
      },
      "id": "way/159728468"
    },
    {
      "type": "Feature",
      "properties": {
        "@id": "way/160841947",
        "access": "yes",
        "leisure": "playground",
        "playground:theme": "castle",
        "surface": "sand",
        "@geometry": "center"
      },
      "geometry": {
        "type": "Point",
        "coordinates": [
          32.5804229,
          46.6206552
        ]
      },
      "id": "way/160841947"
    },
    {
      "type": "Feature",
      "properties": {
        "@id": "way/160841948",
        "leisure": "pitch",
        "@geometry": "center"
      },
      "geometry": {
        "type": "Point",
        "coordinates": [
          32.5771566,
          46.6226305
        ]
      },
      "id": "way/160841948"
    },
    {
      "type": "Feature",
      "properties": {
        "@id": "way/160841971",
        "amenity": "parking",
        "@geometry": "center"
      },
      "geometry": {
        "type": "Point",
        "coordinates": [
          32.5815706,
          46.6200619
        ]
      },
      "id": "way/160841971"
    },
    {
      "type": "Feature",
      "properties": {
        "@id": "way/160841976",
        "addr:street": "Шенгелія вулиця",
        "building": "retail",
        "building:levels": "1",
        "name": "М'ясо Кури",
        "name:uk": "М'ясо Кури",
        "shop": "convenience",
        "@geometry": "center"
      },
      "geometry": {
        "type": "Point",
        "coordinates": [
          32.5792552,
          46.6211035
        ]
      },
      "id": "way/160841976"
    },
    {
      "type": "Feature",
      "properties": {
        "@id": "way/160970854",
        "amenity": "kindergarten",
        "building": "yes",
        "name": "Дитячий садок № 2",
        "name:ru": "Детский сад № 2",
        "name:uk": "Дитячий садок № 2",
        "@geometry": "center"
      },
      "geometry": {
        "type": "Point",
        "coordinates": [
          32.5513141,
          46.5266172
        ]
      },
      "id": "way/160970854"
    },
    {
      "type": "Feature",
      "properties": {
        "@id": "way/164323304",
        "access": "yes",
        "amenity": "parking",
        "capacity": "10",
        "covered": "no",
        "fee": "no",
        "lit": "yes",
        "opening_hours": "24/7",
        "stay": "0",
        "supervised": "no",
        "surface": "concrete",
        "@geometry": "center"
      },
      "geometry": {
        "type": "Point",
        "coordinates": [
          32.6054831,
          46.6284851
        ]
      },
      "id": "way/164323304"
    },
    {
      "type": "Feature",
      "properties": {
        "@id": "way/167321850",
        "name": "Сумський",
        "name:en": "Symskyi",
        "name:ru": "Сумской",
        "name:uk": "Сумський",
        "shop": "convenience",
        "@geometry": "center"
      },
      "geometry": {
        "type": "Point",
        "coordinates": [
          34.8760691,
          45.9078803
        ]
      },
      "id": "way/167321850"
    },
    {
      "type": "Feature",
      "properties": {
        "@id": "way/167321856",
        "shop": "convenience",
        "@geometry": "center"
      },
      "geometry": {
        "type": "Point",
        "coordinates": [
          34.8739545,
          45.9040644
        ]
      },
      "id": "way/167321856"
    },
    {
      "type": "Feature",
      "properties": {
        "@id": "way/167710403",
        "building": "yes",
        "shop": "convenience",
        "@geometry": "center"
      },
      "geometry": {
        "type": "Point",
        "coordinates": [
          34.8752665,
          45.9011326
        ]
      },
      "id": "way/167710403"
    },
    {
      "type": "Feature",
      "properties": {
        "@id": "way/167710404",
        "amenity": "kindergarten",
        "barrier": "fence",
        "name": "Дошкільний навчальний заклад",
        "name:ru": "Дошкольное образовательное учреждение",
        "name:uk": "Дошкільний навчальний заклад",
        "@geometry": "center"
      },
      "geometry": {
        "type": "Point",
        "coordinates": [
          34.8775723,
          45.8983503
        ]
      },
      "id": "way/167710404"
    },
    {
      "type": "Feature",
      "properties": {
        "@id": "way/167710405",
        "leisure": "pitch",
        "@geometry": "center"
      },
      "geometry": {
        "type": "Point",
        "coordinates": [
          34.8764084,
          45.8995094
        ]
      },
      "id": "way/167710405"
    },
    {
      "type": "Feature",
      "properties": {
        "@id": "way/167710407",
        "amenity": "school",
        "barrier": "fence",
        "capacity": "330",
        "email": "strilkovska_school@ukr.net",
        "name": "Стрілківська загальноосвітня школа",
        "name:ru": "Стрелковская общеобразовательная школа",
        "name:uk": "Стрілківська загальноосвітня школа",
        "official_name": "Стрілківська загальноосвітня школа І-ІІІ ступенів Генічеської районної ради Херсонської області",
        "official_name:uk": "Стрілківська загальноосвітня школа І-ІІІ ступенів Генічеської районної ради Херсонської області",
        "phone": "+380 5534 68 118",
        "short_name": "Стрілківська загальноосвітня школа",
        "short_name:uk": "Стрілківська загальноосвітня школа",
        "website": "https://strelkova.ucoz.ua/",
        "@geometry": "center"
      },
      "geometry": {
        "type": "Point",
        "coordinates": [
          34.8767579,
          45.899186
        ]
      },
      "id": "way/167710407"
    },
    {
      "type": "Feature",
      "properties": {
        "@id": "way/167710409",
        "amenity": "hospital",
        "barrier": "fence",
        "@geometry": "center"
      },
      "geometry": {
        "type": "Point",
        "coordinates": [
          34.8731178,
          45.9013761
        ]
      },
      "id": "way/167710409"
    },
    {
      "type": "Feature",
      "properties": {
        "@id": "way/168351225",
        "name": "Крамниця № 28",
        "name:uk": "Крамниця № 28",
        "shop": "convenience",
        "@geometry": "center"
      },
      "geometry": {
        "type": "Point",
        "coordinates": [
          34.8785874,
          45.8972359
        ]
      },
      "id": "way/168351225"
    },
    {
      "type": "Feature",
      "properties": {
        "@id": "way/169256180",
        "amenity": "parking",
        "@geometry": "center"
      },
      "geometry": {
        "type": "Point",
        "coordinates": [
          32.1362529,
          46.2154424
        ]
      },
      "id": "way/169256180"
    },
    {
      "type": "Feature",
      "properties": {
        "@id": "way/169678122",
        "addr:housenumber": "33/1",
        "addr:street": "Перемоги проспект",
        "building": "yes",
        "shop": "convenience",
        "@geometry": "center"
      },
      "geometry": {
        "type": "Point",
        "coordinates": [
          33.3531642,
          46.7456782
        ]
      },
      "id": "way/169678122"
    },
    {
      "type": "Feature",
      "properties": {
        "@id": "way/169678319",
        "leisure": "pitch",
        "sport": "soccer",
        "@geometry": "center"
      },
      "geometry": {
        "type": "Point",
        "coordinates": [
          33.3530985,
          46.7446422
        ]
      },
      "id": "way/169678319"
    },
    {
      "type": "Feature",
      "properties": {
        "@id": "way/169678596",
        "leisure": "playground",
        "@geometry": "center"
      },
      "geometry": {
        "type": "Point",
        "coordinates": [
          33.353065,
          46.7449797
        ]
      },
      "id": "way/169678596"
    },
    {
      "type": "Feature",
      "properties": {
        "@id": "way/169678658",
        "amenity": "parking",
        "@geometry": "center"
      },
      "geometry": {
        "type": "Point",
        "coordinates": [
          33.353999,
          46.7453522
        ]
      },
      "id": "way/169678658"
    },
    {
      "type": "Feature",
      "properties": {
        "@id": "way/169678668",
        "leisure": "playground",
        "@geometry": "center"
      },
      "geometry": {
        "type": "Point",
        "coordinates": [
          33.3540635,
          46.7451263
        ]
      },
      "id": "way/169678668"
    },
    {
      "type": "Feature",
      "properties": {
        "@id": "way/169681157",
        "addr:housenumber": "25/1",
        "addr:street": "Перемоги проспект",
        "building": "yes",
        "name": "До шкільного закладу",
        "name:ru": "До школьное учереждение",
        "name:uk": "До шкільного закладу",
        "shop": "convenience",
        "@geometry": "center"
      },
      "geometry": {
        "type": "Point",
        "coordinates": [
          33.3549538,
          46.7455881
        ]
      },
      "id": "way/169681157"
    },
    {
      "type": "Feature",
      "properties": {
        "@id": "way/169681224",
        "building": "yes",
        "name": "Кораблик",
        "name:uk": "Кораблик",
        "shop": "convenience",
        "@geometry": "center"
      },
      "geometry": {
        "type": "Point",
        "coordinates": [
          33.3561888,
          46.7462019
        ]
      },
      "id": "way/169681224"
    },
    {
      "type": "Feature",
      "properties": {
        "@id": "way/169681545",
        "addr:housenumber": "13/1",
        "addr:street": "Перемоги проспект",
        "building": "yes",
        "shop": "convenience",
        "@geometry": "center"
      },
      "geometry": {
        "type": "Point",
        "coordinates": [
          33.3595234,
          46.7464777
        ]
      },
      "id": "way/169681545"
    },
    {
      "type": "Feature",
      "properties": {
        "@id": "way/169711332",
        "leisure": "playground",
        "@geometry": "center"
      },
      "geometry": {
        "type": "Point",
        "coordinates": [
          33.353111,
          46.7437886
        ]
      },
      "id": "way/169711332"
    },
    {
      "type": "Feature",
      "properties": {
        "@id": "way/169711510",
        "building": "yes",
        "leisure": "sports_centre",
        "name": "Спортзал",
        "name:uk": "Спортзал",
        "@geometry": "center"
      },
      "geometry": {
        "type": "Point",
        "coordinates": [
          33.353532,
          46.7438428
        ]
      },
      "id": "way/169711510"
    },
    {
      "type": "Feature",
      "properties": {
        "@id": "way/169716660",
        "building": "yes",
        "name": "Green Market",
        "name:uk": "Green Market",
        "old_name": "Таёжный",
        "shop": "convenience",
        "@geometry": "center"
      },
      "geometry": {
        "type": "Point",
        "coordinates": [
          33.3531846,
          46.7423017
        ]
      },
      "id": "way/169716660"
    },
    {
      "type": "Feature",
      "properties": {
        "@id": "way/169717977",
        "amenity": "kindergarten",
        "@geometry": "center"
      },
      "geometry": {
        "type": "Point",
        "coordinates": [
          33.3547147,
          46.7432601
        ]
      },
      "id": "way/169717977"
    },
    {
      "type": "Feature",
      "properties": {
        "@id": "way/169718041",
        "leisure": "playground",
        "@geometry": "center"
      },
      "geometry": {
        "type": "Point",
        "coordinates": [
          33.3547469,
          46.7426385
        ]
      },
      "id": "way/169718041"
    },
    {
      "type": "Feature",
      "properties": {
        "@id": "way/169718631",
        "amenity": "kindergarten",
        "@geometry": "center"
      },
      "geometry": {
        "type": "Point",
        "coordinates": [
          33.3567318,
          46.7446869
        ]
      },
      "id": "way/169718631"
    },
    {
      "type": "Feature",
      "properties": {
        "@id": "way/169719293",
        "building": "yes",
        "shop": "convenience",
        "@geometry": "center"
      },
      "geometry": {
        "type": "Point",
        "coordinates": [
          33.3586164,
          46.7438654
        ]
      },
      "id": "way/169719293"
    },
    {
      "type": "Feature",
      "properties": {
        "@id": "way/169720776",
        "amenity": "school",
        "name": "Школа №8",
        "name:uk": "Школа №8",
        "@geometry": "center"
      },
      "geometry": {
        "type": "Point",
        "coordinates": [
          33.3570142,
          46.7433763
        ]
      },
      "id": "way/169720776"
    },
    {
      "type": "Feature",
      "properties": {
        "@id": "way/169721513",
        "leisure": "pitch",
        "sport": "soccer",
        "@geometry": "center"
      },
      "geometry": {
        "type": "Point",
        "coordinates": [
          33.3593318,
          46.7433228
        ]
      },
      "id": "way/169721513"
    },
    {
      "type": "Feature",
      "properties": {
        "@id": "way/169723942",
        "leisure": "park",
        "@geometry": "center"
      },
      "geometry": {
        "type": "Point",
        "coordinates": [
          33.3559511,
          46.7399139
        ]
      },
      "id": "way/169723942"
    },
    {
      "type": "Feature",
      "properties": {
        "@id": "way/169723943",
        "leisure": "park",
        "@geometry": "center"
      },
      "geometry": {
        "type": "Point",
        "coordinates": [
          33.3556722,
          46.741061
        ]
      },
      "id": "way/169723943"
    },
    {
      "type": "Feature",
      "properties": {
        "@id": "way/169723944",
        "amenity": "parking",
        "parking": "surface",
        "@geometry": "center"
      },
      "geometry": {
        "type": "Point",
        "coordinates": [
          33.353229,
          46.7417759
        ]
      },
      "id": "way/169723944"
    },
    {
      "type": "Feature",
      "properties": {
        "@id": "way/169741611",
        "building": "yes",
        "shop": "convenience",
        "@geometry": "center"
      },
      "geometry": {
        "type": "Point",
        "coordinates": [
          33.3535102,
          46.7389203
        ]
      },
      "id": "way/169741611"
    },
    {
      "type": "Feature",
      "properties": {
        "@id": "way/169742071",
        "amenity": "hospital",
        "building": "yes",
        "emergency": "yes",
        "name": "Швидка допомога",
        "name:ru": "Скорая помощь",
        "name:uk": "Швидка допомога",
        "@geometry": "center"
      },
      "geometry": {
        "type": "Point",
        "coordinates": [
          33.359062,
          46.7401669
        ]
      },
      "id": "way/169742071"
    },
    {
      "type": "Feature",
      "properties": {
        "@id": "way/169746028",
        "amenity": "university",
        "building": "yes",
        "name": "Університет \"Україна\"",
        "name:uk": "Університет \"Україна\"",
        "@geometry": "center"
      },
      "geometry": {
        "type": "Point",
        "coordinates": [
          33.36112,
          46.7446028
        ]
      },
      "id": "way/169746028"
    },
    {
      "type": "Feature",
      "properties": {
        "@id": "way/169746256",
        "amenity": "parking",
        "parking": "surface",
        "@geometry": "center"
      },
      "geometry": {
        "type": "Point",
        "coordinates": [
          33.3609196,
          46.7440391
        ]
      },
      "id": "way/169746256"
    },
    {
      "type": "Feature",
      "properties": {
        "@id": "way/169746574",
        "building": "yes",
        "name": "Сокіл",
        "name:ru": "Сокол",
        "name:uk": "Сокіл",
        "shop": "supermarket",
        "@geometry": "center"
      },
      "geometry": {
        "type": "Point",
        "coordinates": [
          33.3614345,
          46.7461909
        ]
      },
      "id": "way/169746574"
    },
    {
      "type": "Feature",
      "properties": {
        "@id": "way/169747159",
        "amenity": "hospital",
        "building": "yes",
        "name": "Поліклініка заводу",
        "name:uk": "Поліклініка заводу",
        "@geometry": "center"
      },
      "geometry": {
        "type": "Point",
        "coordinates": [
          33.3620643,
          46.7462626
        ]
      },
      "id": "way/169747159"
    },
    {
      "type": "Feature",
      "properties": {
        "@id": "way/169749743",
        "addr:housenumber": "18",
        "addr:street": "Перемоги проспект",
        "brand": "АТБ-маркет",
        "brand:en": "ATB-Market",
        "brand:uk": "АТБ-маркет",
        "brand:wikidata": "Q4054103",
        "brand:wikipedia": "uk:АТБ-Маркет",
        "building": "yes",
        "name": "АТБ-Маркет",
        "name:en": "ATB-Market",
        "name:ru": "АТБ-Маркет",
        "name:uk": "АТБ-Маркет",
        "operator": "АТБ",
        "shop": "supermarket",
        "website": "https://www.atbmarket.com/uk",
        "@geometry": "center"
      },
      "geometry": {
        "type": "Point",
        "coordinates": [
          33.3589933,
          46.7472622
        ]
      },
      "id": "way/169749743"
    },
    {
      "type": "Feature",
      "properties": {
        "@id": "way/169749745",
        "amenity": "parking",
        "capacity": "20",
        "capacity:disabled": "2",
        "fee": "no",
        "parking": "surface",
        "surface": "asphalt",
        "@geometry": "center"
      },
      "geometry": {
        "type": "Point",
        "coordinates": [
          33.3593669,
          46.7468507
        ]
      },
      "id": "way/169749745"
    },
    {
      "type": "Feature",
      "properties": {
        "@id": "way/169817014",
        "addr:housenumber": "34а",
        "addr:street": "Перемоги проспект",
        "building": "yes",
        "name": "Марія",
        "name:uk": "Марія",
        "payment:cash": "yes",
        "payment:mastercard": "yes",
        "payment:visa": "yes",
        "shop": "convenience",
        "@geometry": "center"
      },
      "geometry": {
        "type": "Point",
        "coordinates": [
          33.3549249,
          46.746978
        ]
      },
      "id": "way/169817014"
    },
    {
      "type": "Feature",
      "properties": {
        "@id": "way/169818003",
        "amenity": "parking",
        "fee": "yes",
        "parking": "surface",
        "@geometry": "center"
      },
      "geometry": {
        "type": "Point",
        "coordinates": [
          33.3533732,
          46.7476173
        ]
      },
      "id": "way/169818003"
    },
    {
      "type": "Feature",
      "properties": {
        "@id": "way/169818069",
        "amenity": "school",
        "name": "ЗОШ І-ІІІ ст. №10",
        "name:ru": "СОШ I-III ст. №10",
        "name:uk": "ЗОШ І-ІІІ ст. №10",
        "@geometry": "center"
      },
      "geometry": {
        "type": "Point",
        "coordinates": [
          33.3553042,
          46.7481382
        ]
      },
      "id": "way/169818069"
    },
    {
      "type": "Feature",
      "properties": {
        "@id": "way/169819618",
        "amenity": "parking",
        "parking": "surface",
        "@geometry": "center"
      },
      "geometry": {
        "type": "Point",
        "coordinates": [
          33.3586474,
          46.7476989
        ]
      },
      "id": "way/169819618"
    },
    {
      "type": "Feature",
      "properties": {
        "@id": "way/169821405",
        "amenity": "kindergarten",
        "@geometry": "center"
      },
      "geometry": {
        "type": "Point",
        "coordinates": [
          33.3574213,
          46.7488576
        ]
      },
      "id": "way/169821405"
    },
    {
      "type": "Feature",
      "properties": {
        "@id": "way/169822901",
        "building": "yes",
        "name": "Росинка",
        "name:uk": "Росинка",
        "shop": "convenience",
        "@geometry": "center"
      },
      "geometry": {
        "type": "Point",
        "coordinates": [
          33.3590668,
          46.7487043
        ]
      },
      "id": "way/169822901"
    },
    {
      "type": "Feature",
      "properties": {
        "@id": "way/169823434",
        "amenity": "parking",
        "fee": "yes",
        "parking": "surface",
        "@geometry": "center"
      },
      "geometry": {
        "type": "Point",
        "coordinates": [
          33.3518864,
          46.748919
        ]
      },
      "id": "way/169823434"
    },
    {
      "type": "Feature",
      "properties": {
        "@id": "way/169977013",
        "building": "yes",
        "leisure": "sports_centre",
        "name": "Спорткомплекс \"Гарт\"",
        "name:uk": "Спорткомплекс \"Гарт\"",
        "@geometry": "center"
      },
      "geometry": {
        "type": "Point",
        "coordinates": [
          33.3608773,
          46.7504462
        ]
      },
      "id": "way/169977013"
    },
    {
      "type": "Feature",
      "properties": {
        "@id": "way/169977794",
        "amenity": "kindergarten",
        "name": "Дитячий садок \"Аленький цветочек\"",
        "name:ru": "Детский сад «Аленький цветочек»",
        "name:uk": "Дитячий садок \"Аленький цветочек\"",
        "@geometry": "center"
      },
      "geometry": {
        "type": "Point",
        "coordinates": [
          33.3609205,
          46.7495267
        ]
      },
      "id": "way/169977794"
    },
    {
      "type": "Feature",
      "properties": {
        "@id": "way/169979182",
        "building": "yes",
        "shop": "convenience",
        "@geometry": "center"
      },
      "geometry": {
        "type": "Point",
        "coordinates": [
          33.3609414,
          46.7470506
        ]
      },
      "id": "way/169979182"
    },
    {
      "type": "Feature",
      "properties": {
        "@id": "way/169979183",
        "building": "yes",
        "shop": "convenience",
        "@geometry": "center"
      },
      "geometry": {
        "type": "Point",
        "coordinates": [
          33.3612799,
          46.7470781
        ]
      },
      "id": "way/169979183"
    },
    {
      "type": "Feature",
      "properties": {
        "@id": "way/169980542",
        "amenity": "school",
        "@geometry": "center"
      },
      "geometry": {
        "type": "Point",
        "coordinates": [
          33.3639065,
          46.7497112
        ]
      },
      "id": "way/169980542"
    },
    {
      "type": "Feature",
      "properties": {
        "@id": "way/169980776",
        "addr:street": "Довженка вулиця",
        "building": "yes",
        "name": "Росинка-2",
        "name:uk": "Росинка-2",
        "shop": "convenience",
        "@geometry": "center"
      },
      "geometry": {
        "type": "Point",
        "coordinates": [
          33.3637205,
          46.7509382
        ]
      },
      "id": "way/169980776"
    },
    {
      "type": "Feature",
      "properties": {
        "@id": "way/169980931",
        "shop": "convenience",
        "@geometry": "center"
      },
      "geometry": {
        "type": "Point",
        "coordinates": [
          33.3598641,
          46.7482925
        ]
      },
      "id": "way/169980931"
    },
    {
      "type": "Feature",
      "properties": {
        "@id": "way/169984647",
        "leisure": "park",
        "@geometry": "center"
      },
      "geometry": {
        "type": "Point",
        "coordinates": [
          33.368992,
          46.7414578
        ]
      },
      "id": "way/169984647"
    },
    {
      "type": "Feature",
      "properties": {
        "@id": "way/170076180",
        "amenity": "parking",
        "parking": "surface",
        "@geometry": "center"
      },
      "geometry": {
        "type": "Point",
        "coordinates": [
          33.365976,
          46.7492243
        ]
      },
      "id": "way/170076180"
    },
    {
      "type": "Feature",
      "properties": {
        "@id": "way/170076394",
        "addr:housenumber": "29а",
        "addr:street": "Затишна вулиця",
        "building": "yes",
        "shop": "convenience",
        "@geometry": "center"
      },
      "geometry": {
        "type": "Point",
        "coordinates": [
          33.3656338,
          46.7497941
        ]
      },
      "id": "way/170076394"
    },
    {
      "type": "Feature",
      "properties": {
        "@id": "way/170077359",
        "amenity": "kindergarten",
        "name": "Дитячий садок \"Золота рибка\"",
        "name:ru": "Детский сад «Золотая рыбка»",
        "name:uk": "Дитячий садок \"Золота рибка\"",
        "@geometry": "center"
      },
      "geometry": {
        "type": "Point",
        "coordinates": [
          33.365943,
          46.750613
        ]
      },
      "id": "way/170077359"
    },
    {
      "type": "Feature",
      "properties": {
        "@id": "way/170077379",
        "amenity": "kindergarten",
        "name": "Дитячий садок \"Журавлик\"",
        "name:ru": "Детский сад «Журавлик»",
        "name:uk": "Дитячий садок \"Журавлик\"",
        "@geometry": "center"
      },
      "geometry": {
        "type": "Point",
        "coordinates": [
          33.3672961,
          46.7507581
        ]
      },
      "id": "way/170077379"
    },
    {
      "type": "Feature",
      "properties": {
        "@id": "way/170078405",
        "addr:housenumber": "35",
        "addr:street": "Першотравнева вулиця",
        "amenity": "university",
        "building": "yes",
        "name": "Новокаховський політехнічний інститут",
        "name:uk": "Новокаховський політехнічний інститут",
        "website": "http://nkpi.com.ua/",
        "@geometry": "center"
      },
      "geometry": {
        "type": "Point",
        "coordinates": [
          33.3706368,
          46.7468121
        ]
      },
      "id": "way/170078405"
    },
    {
      "type": "Feature",
      "properties": {
        "@id": "way/170241038",
        "addr:street": "Миколи Букіна вулиця",
        "building": "yes",
        "leisure": "sports_centre",
        "@geometry": "center"
      },
      "geometry": {
        "type": "Point",
        "coordinates": [
          33.3611073,
          46.753123
        ]
      },
      "id": "way/170241038"
    },
    {
      "type": "Feature",
      "properties": {
        "@id": "way/170242353",
        "amenity": "school",
        "name": "Школа №4",
        "name:uk": "Школа №4",
        "@geometry": "center"
      },
      "geometry": {
        "type": "Point",
        "coordinates": [
          33.3625789,
          46.7546695
        ]
      },
      "id": "way/170242353"
    },
    {
      "type": "Feature",
      "properties": {
        "@id": "way/170243067",
        "amenity": "kindergarten",
        "name": "Дитячий садок «Дюймовочка»",
        "name:ru": "Детский сад «Дюймовочка»",
        "name:uk": "Дитячий садок «Дюймовочка»",
        "@geometry": "center"
      },
      "geometry": {
        "type": "Point",
        "coordinates": [
          33.3610984,
          46.7541375
        ]
      },
      "id": "way/170243067"
    },
    {
      "type": "Feature",
      "properties": {
        "@id": "way/170300924",
        "leisure": "pitch",
        "@geometry": "center"
      },
      "geometry": {
        "type": "Point",
        "coordinates": [
          33.3606665,
          46.7556425
        ]
      },
      "id": "way/170300924"
    },
    {
      "type": "Feature",
      "properties": {
        "@id": "way/170303244",
        "amenity": "kindergarten",
        "@geometry": "center"
      },
      "geometry": {
        "type": "Point",
        "coordinates": [
          33.3570482,
          46.7534249
        ]
      },
      "id": "way/170303244"
    },
    {
      "type": "Feature",
      "properties": {
        "@id": "way/170303598",
        "leisure": "pitch",
        "lit": "no",
        "sport": "soccer",
        "wheelchair": "yes",
        "@geometry": "center"
      },
      "geometry": {
        "type": "Point",
        "coordinates": [
          33.3562032,
          46.7550392
        ]
      },
      "id": "way/170303598"
    },
    {
      "type": "Feature",
      "properties": {
        "@id": "way/170326601",
        "addr:housenumber": "112",
        "addr:postcode": "75120",
        "addr:street": "Соборна вулиця",
        "amenity": "school",
        "name": "Новомаячківська загальноосвітня школа І-ІІІ ступенів",
        "name:uk": "Новомаячківська загальноосвітня школа І-ІІІ ступенів",
        "website": "https://facebook.com/nmschool2007",
        "@geometry": "center"
      },
      "geometry": {
        "type": "Point",
        "coordinates": [
          33.2267146,
          46.6015232
        ]
      },
      "id": "way/170326601"
    },
    {
      "type": "Feature",
      "properties": {
        "@id": "way/170579472",
        "amenity": "parking",
        "parking": "surface",
        "@geometry": "center"
      },
      "geometry": {
        "type": "Point",
        "coordinates": [
          33.3491989,
          46.7515501
        ]
      },
      "id": "way/170579472"
    },
    {
      "type": "Feature",
      "properties": {
        "@id": "way/170601845",
        "addr:housenumber": "25а",
        "addr:street": "Затишна вулиця",
        "building": "yes",
        "name": "Ізабелла",
        "name:uk": "Ізабелла",
        "opening_hours": "Mo-Su 08:00-20:00",
        "shop": "convenience",
        "@geometry": "center"
      },
      "geometry": {
        "type": "Point",
        "coordinates": [
          33.3646867,
          46.7534368
        ]
      },
      "id": "way/170601845"
    },
    {
      "type": "Feature",
      "properties": {
        "@id": "way/170605736",
        "leisure": "park",
        "@geometry": "center"
      },
      "geometry": {
        "type": "Point",
        "coordinates": [
          33.3655541,
          46.7555157
        ]
      },
      "id": "way/170605736"
    },
    {
      "type": "Feature",
      "properties": {
        "@id": "way/171601214",
        "addr:housenumber": "17",
        "addr:street": "Першотравнева вулиця",
        "building": "yes",
        "name": "Центральний універмаг",
        "name:ru": "Центральный универмаг",
        "name:uk": "Центральний універмаг",
        "opening_hours": "Mo-Su 09:00-18:00",
        "shop": "supermarket",
        "@geometry": "center"
      },
      "geometry": {
        "type": "Point",
        "coordinates": [
          33.3661794,
          46.7575688
        ]
      },
      "id": "way/171601214"
    },
    {
      "type": "Feature",
      "properties": {
        "@id": "way/171605454",
        "addr:housenumber": "13",
        "addr:street": "Французька вулиця",
        "building": "yes",
        "name": "Торговий дім \"Центральний\"",
        "name:uk": "Торговий дім \"Центральний\"",
        "shop": "supermarket",
        "@geometry": "center"
      },
      "geometry": {
        "type": "Point",
        "coordinates": [
          33.3667234,
          46.7578065
        ]
      },
      "id": "way/171605454"
    },
    {
      "type": "Feature",
      "properties": {
        "@id": "way/172041957",
        "amenity": "school",
        "name": "Школа №9",
        "name:uk": "Школа №9",
        "@geometry": "center"
      },
      "geometry": {
        "type": "Point",
        "coordinates": [
          33.3695817,
          46.7558103
        ]
      },
      "id": "way/172041957"
    },
    {
      "type": "Feature",
      "properties": {
        "@id": "way/172043158",
        "addr:housenumber": "55",
        "addr:street": "Французька вулиця",
        "building": "yes",
        "name": "Мегармаркет «Оскар»",
        "name:uk": "Мегармаркет «Оскар»",
        "shop": "supermarket",
        "@geometry": "center"
      },
      "geometry": {
        "type": "Point",
        "coordinates": [
          33.3751974,
          46.7565502
        ]
      },
      "id": "way/172043158"
    },
    {
      "type": "Feature",
      "properties": {
        "@id": "way/172045218",
        "amenity": "kindergarten",
        "name": "Дитячий садок «Казка»",
        "name:ru": "Детский сад «Сказка»",
        "name:uk": "Дитячий садок «Казка»",
        "@geometry": "center"
      },
      "geometry": {
        "type": "Point",
        "coordinates": [
          33.3695534,
          46.7545248
        ]
      },
      "id": "way/172045218"
    },
    {
      "type": "Feature",
      "properties": {
        "@id": "way/172181519",
        "amenity": "parking",
        "@geometry": "center"
      },
      "geometry": {
        "type": "Point",
        "coordinates": [
          32.5674387,
          46.6421516
        ]
      },
      "id": "way/172181519"
    },
    {
      "type": "Feature",
      "properties": {
        "@id": "way/172298383",
        "amenity": "kindergarten",
        "name": "Золотий ключик",
        "name:ru": "Золотой ключик",
        "name:uk": "Золотий ключик",
        "@geometry": "center"
      },
      "geometry": {
        "type": "Point",
        "coordinates": [
          33.3756166,
          46.7551687
        ]
      },
      "id": "way/172298383"
    },
    {
      "type": "Feature",
      "properties": {
        "@id": "way/172303197",
        "leisure": "pitch",
        "@geometry": "center"
      },
      "geometry": {
        "type": "Point",
        "coordinates": [
          33.3784286,
          46.7550378
        ]
      },
      "id": "way/172303197"
    },
    {
      "type": "Feature",
      "properties": {
        "@id": "way/172306316",
        "amenity": "parking",
        "parking": "surface",
        "@geometry": "center"
      },
      "geometry": {
        "type": "Point",
        "coordinates": [
          33.379824,
          46.756591
        ]
      },
      "id": "way/172306316"
    },
    {
      "type": "Feature",
      "properties": {
        "@id": "way/172307754",
        "amenity": "school",
        "name": "Новокаховський техніко-економічний ліцей",
        "name:ru": "Новокаховский технико-экономический лицей",
        "name:uk": "Новокаховський техніко-економічний ліцей",
        "@geometry": "center"
      },
      "geometry": {
        "type": "Point",
        "coordinates": [
          33.3661974,
          46.7541736
        ]
      },
      "id": "way/172307754"
    },
    {
      "type": "Feature",
      "properties": {
        "@id": "way/172529996",
        "amenity": "bus_station",
        "building": "yes",
        "name": "Автовокзал",
        "name:uk": "Автовокзал",
        "@geometry": "center"
      },
      "geometry": {
        "type": "Point",
        "coordinates": [
          33.3719745,
          46.7581695
        ]
      },
      "id": "way/172529996"
    },
    {
      "type": "Feature",
      "properties": {
        "@id": "way/172530393",
        "amenity": "parking",
        "parking": "surface",
        "@geometry": "center"
      },
      "geometry": {
        "type": "Point",
        "coordinates": [
          33.3695566,
          46.7586402
        ]
      },
      "id": "way/172530393"
    },
    {
      "type": "Feature",
      "properties": {
        "@id": "way/172530702",
        "amenity": "bus_station",
        "@geometry": "center"
      },
      "geometry": {
        "type": "Point",
        "coordinates": [
          33.3717441,
          46.7582869
        ]
      },
      "id": "way/172530702"
    },
    {
      "type": "Feature",
      "properties": {
        "@id": "way/173023022",
        "amenity": "parking",
        "parking": "surface",
        "@geometry": "center"
      },
      "geometry": {
        "type": "Point",
        "coordinates": [
          33.375102,
          46.765969
        ]
      },
      "id": "way/173023022"
    },
    {
      "type": "Feature",
      "properties": {
        "@id": "way/173026174",
        "leisure": "pitch",
        "name": "Майданчик для стрільби з лука",
        "name:ru": "Площадка для стрельбы из лука",
        "name:uk": "Майданчик для стрільби з лука",
        "sport": "archery",
        "@geometry": "center"
      },
      "geometry": {
        "type": "Point",
        "coordinates": [
          33.3650574,
          46.7645908
        ]
      },
      "id": "way/173026174"
    },
    {
      "type": "Feature",
      "properties": {
        "@id": "way/173026547",
        "leisure": "pitch",
        "name": "Майданчик для гри в футбол",
        "name:uk": "Майданчик для гри в футбол",
        "sport": "soccer",
        "@geometry": "center"
      },
      "geometry": {
        "type": "Point",
        "coordinates": [
          33.3644105,
          46.7635945
        ]
      },
      "id": "way/173026547"
    },
    {
      "type": "Feature",
      "properties": {
        "@id": "way/173026811",
        "leisure": "pitch",
        "sport": "volleyball",
        "@geometry": "center"
      },
      "geometry": {
        "type": "Point",
        "coordinates": [
          33.3625031,
          46.7630115
        ]
      },
      "id": "way/173026811"
    },
    {
      "type": "Feature",
      "properties": {
        "@id": "way/173026886",
        "leisure": "pitch",
        "sport": "basketball",
        "@geometry": "center"
      },
      "geometry": {
        "type": "Point",
        "coordinates": [
          33.3620786,
          46.7634365
        ]
      },
      "id": "way/173026886"
    },
    {
      "type": "Feature",
      "properties": {
        "@id": "way/173026931",
        "leisure": "pitch",
        "sport": "soccer",
        "@geometry": "center"
      },
      "geometry": {
        "type": "Point",
        "coordinates": [
          33.3622419,
          46.7643772
        ]
      },
      "id": "way/173026931"
    },
    {
      "type": "Feature",
      "properties": {
        "@id": "way/173027349",
        "leisure": "pitch",
        "sport": "tennis",
        "@geometry": "center"
      },
      "geometry": {
        "type": "Point",
        "coordinates": [
          33.3611186,
          46.7646552
        ]
      },
      "id": "way/173027349"
    },
    {
      "type": "Feature",
      "properties": {
        "@id": "way/173027805",
        "leisure": "pitch",
        "name": "Стадіон \"Дніпро\"",
        "name:ru": "Стадион «Днепр»",
        "name:uk": "Стадіон \"Дніпро\"",
        "sport": "soccer",
        "@geometry": "center"
      },
      "geometry": {
        "type": "Point",
        "coordinates": [
          33.3627539,
          46.7655474
        ]
      },
      "id": "way/173027805"
    },
    {
      "type": "Feature",
      "properties": {
        "@id": "way/173027878",
        "leisure": "pitch",
        "name": "Спортивний майданчик",
        "name:uk": "Спортивний майданчик",
        "@geometry": "center"
      },
      "geometry": {
        "type": "Point",
        "coordinates": [
          33.3642771,
          46.7662385
        ]
      },
      "id": "way/173027878"
    },
    {
      "type": "Feature",
      "properties": {
        "@id": "way/173027957",
        "leisure": "pitch",
        "name": "Майданчик для метання молота",
        "name:uk": "Майданчик для метання молота",
        "@geometry": "center"
      },
      "geometry": {
        "type": "Point",
        "coordinates": [
          33.3657566,
          46.7668231
        ]
      },
      "id": "way/173027957"
    },
    {
      "type": "Feature",
      "properties": {
        "@id": "way/173030072",
        "leisure": "park",
        "name": "Парк ім. С.М. Фалдзінського",
        "name:ru": "Парк им. С. М. Фалдзинского",
        "name:uk": "Парк ім. С.М. Фалдзінського",
        "@geometry": "center"
      },
      "geometry": {
        "type": "Point",
        "coordinates": [
          33.3579792,
          46.7642871
        ]
      },
      "id": "way/173030072"
    },
    {
      "type": "Feature",
      "properties": {
        "@id": "way/173129276",
        "addr:housenumber": "30",
        "amenity": "hospital",
        "building": "yes",
        "name": "Шкірно-венерологічний диспансер",
        "name:ru": "Кожно-венерологический диспансер",
        "name:uk": "Шкірно-венерологічний диспансер",
        "@geometry": "center"
      },
      "geometry": {
        "type": "Point",
        "coordinates": [
          33.3592053,
          46.7570829
        ]
      },
      "id": "way/173129276"
    },
    {
      "type": "Feature",
      "properties": {
        "@id": "way/173130586",
        "addr:housenumber": "33а",
        "amenity": "hospital",
        "building": "hospital",
        "name": "Міська поліклініка №1",
        "name:ru": "Городская поликлиника №1",
        "name:uk": "Міська поліклініка №1",
        "wheelchair": "limited",
        "@geometry": "center"
      },
      "geometry": {
        "type": "Point",
        "coordinates": [
          33.3572637,
          46.7576179
        ]
      },
      "id": "way/173130586"
    },
    {
      "type": "Feature",
      "properties": {
        "@id": "way/173132475",
        "amenity": "school",
        "name": "НВК Д/з - ЗОШ №2",
        "name:ru": "СОШ №2",
        "name:uk": "НВК Д/з - ЗОШ №2",
        "@geometry": "center"
      },
      "geometry": {
        "type": "Point",
        "coordinates": [
          33.3604646,
          46.759505
        ]
      },
      "id": "way/173132475"
    },
    {
      "type": "Feature",
      "properties": {
        "@id": "way/173134763",
        "addr:housenumber": "8",
        "amenity": "kindergarten",
        "building": "yes",
        "name": "Дитячий садок «Ромашка»",
        "name:ru": "Детский сад «Ромашка»",
        "name:uk": "Дитячий садок «Ромашка»",
        "@geometry": "center"
      },
      "geometry": {
        "type": "Point",
        "coordinates": [
          33.3615358,
          46.7607346
        ]
      },
      "id": "way/173134763"
    },
    {
      "type": "Feature",
      "properties": {
        "@id": "way/173570573",
        "amenity": "school",
        "name": "Новокаховська ЗОШ №1",
        "name:rue": "Новокаховская СОШ №1",
        "name:uk": "Новокаховська ЗОШ №1",
        "@geometry": "center"
      },
      "geometry": {
        "type": "Point",
        "coordinates": [
          33.3528788,
          46.7571915
        ]
      },
      "id": "way/173570573"
    },
    {
      "type": "Feature",
      "properties": {
        "@id": "way/173739495",
        "leisure": "playground",
        "@geometry": "center"
      },
      "geometry": {
        "type": "Point",
        "coordinates": [
          33.3562389,
          46.7614386
        ]
      },
      "id": "way/173739495"
    },
    {
      "type": "Feature",
      "properties": {
        "@id": "way/174173782",
        "amenity": "parking",
        "operator": "Очень дорогая парковка",
        "parking": "surface",
        "@geometry": "center"
      },
      "geometry": {
        "type": "Point",
        "coordinates": [
          32.9096934,
          46.1090394
        ]
      },
      "id": "way/174173782"
    },
    {
      "type": "Feature",
      "properties": {
        "@id": "way/174177597",
        "amenity": "parking",
        "capacity": "4",
        "parking": "surface",
        "@geometry": "center"
      },
      "geometry": {
        "type": "Point",
        "coordinates": [
          32.9134862,
          46.1176776
        ]
      },
      "id": "way/174177597"
    },
    {
      "type": "Feature",
      "properties": {
        "@id": "way/174583236",
        "amenity": "school",
        "loc_name": "Школа №3",
        "name": "Новокаховська ЗОШ №3",
        "name:ru": "Новокаховская СОШ №3",
        "name:uk": "Новокаховська ЗОШ №3",
        "@geometry": "center"
      },
      "geometry": {
        "type": "Point",
        "coordinates": [
          33.349046,
          46.7559905
        ]
      },
      "id": "way/174583236"
    },
    {
      "type": "Feature",
      "properties": {
        "@id": "way/175014041",
        "addr:housenumber": "81",
        "addr:street": "Дніпровський проспект",
        "building": "apartments",
        "name": "Дніпровський проспект",
        "name:uk": "Дніпровський проспект",
        "shop": "convenience",
        "@geometry": "center"
      },
      "geometry": {
        "type": "Point",
        "coordinates": [
          33.3416734,
          46.7551008
        ]
      },
      "id": "way/175014041"
    },
    {
      "type": "Feature",
      "properties": {
        "@id": "way/175018543",
        "amenity": "school",
        "name": "Школа-інтернат №1",
        "name:ru": "Школа-интернат №1",
        "name:uk": "Школа-інтернат №1",
        "@geometry": "center"
      },
      "geometry": {
        "type": "Point",
        "coordinates": [
          33.3393593,
          46.7549204
        ]
      },
      "id": "way/175018543"
    },
    {
      "type": "Feature",
      "properties": {
        "@id": "way/175027641",
        "addr:housenumber": "9",
        "addr:street": "Маяковського вулиця",
        "building": "retail",
        "name": "Катрин",
        "name:uk": "Катрин",
        "opening_hours": "08:00-20:00",
        "shop": "convenience",
        "@geometry": "center"
      },
      "geometry": {
        "type": "Point",
        "coordinates": [
          33.3428778,
          46.7530598
        ]
      },
      "id": "way/175027641"
    },
    {
      "type": "Feature",
      "properties": {
        "@id": "way/175032990",
        "amenity": "kindergarten",
        "name": "Дитсадок \"Сонечко\"",
        "name:ru": "Детский сад \"Солнышко\"",
        "name:uk": "Дитсадок \"Сонечко\"",
        "official_name": "ДЗаклад дошкільної освіти ясла-садок загального типу № 2 \"Сонечко\" Новокаховської міської ради",
        "@geometry": "center"
      },
      "geometry": {
        "type": "Point",
        "coordinates": [
          33.3403181,
          46.7542147
        ]
      },
      "id": "way/175032990"
    },
    {
      "type": "Feature",
      "properties": {
        "@id": "way/175035334",
        "building": "yes",
        "name": "Корчма",
        "name:uk": "Корчма",
        "opening_hours": "08:00-20:00",
        "shop": "supermarket",
        "@geometry": "center"
      },
      "geometry": {
        "type": "Point",
        "coordinates": [
          33.339792,
          46.7527273
        ]
      },
      "id": "way/175035334"
    },
    {
      "type": "Feature",
      "properties": {
        "@id": "way/176715895",
        "leisure": "pitch",
        "@geometry": "center"
      },
      "geometry": {
        "type": "Point",
        "coordinates": [
          32.5783488,
          46.6179786
        ]
      },
      "id": "way/176715895"
    },
    {
      "type": "Feature",
      "properties": {
        "@id": "way/176715898",
        "building": "yes",
        "name": "33 кв. метра",
        "name:uk": "33 кв. метра",
        "shop": "mall",
        "@geometry": "center"
      },
      "geometry": {
        "type": "Point",
        "coordinates": [
          32.5784459,
          46.6207536
        ]
      },
      "id": "way/176715898"
    },
    {
      "type": "Feature",
      "properties": {
        "@id": "way/176724891",
        "leisure": "playground",
        "@geometry": "center"
      },
      "geometry": {
        "type": "Point",
        "coordinates": [
          32.58272,
          46.6139316
        ]
      },
      "id": "way/176724891"
    },
    {
      "type": "Feature",
      "properties": {
        "@id": "way/176727301",
        "amenity": "parking",
        "@geometry": "center"
      },
      "geometry": {
        "type": "Point",
        "coordinates": [
          32.5826884,
          46.6209254
        ]
      },
      "id": "way/176727301"
    },
    {
      "type": "Feature",
      "properties": {
        "@id": "way/176727305",
        "building": "yes",
        "opening_hours": "24/7",
        "shop": "convenience",
        "@geometry": "center"
      },
      "geometry": {
        "type": "Point",
        "coordinates": [
          32.5846682,
          46.6187721
        ]
      },
      "id": "way/176727305"
    },
    {
      "type": "Feature",
      "properties": {
        "@id": "way/176732653",
        "building": "yes",
        "name": "Ерик",
        "name:uk": "Ерик",
        "shop": "convenience",
        "@geometry": "center"
      },
      "geometry": {
        "type": "Point",
        "coordinates": [
          32.5686673,
          46.6038732
        ]
      },
      "id": "way/176732653"
    },
    {
      "type": "Feature",
      "properties": {
        "@id": "way/181983211",
        "leisure": "park",
        "@geometry": "center"
      },
      "geometry": {
        "type": "Point",
        "coordinates": [
          33.2976092,
          47.3162047
        ]
      },
      "id": "way/181983211"
    },
    {
      "type": "Feature",
      "properties": {
        "@id": "way/182977549",
        "amenity": "school",
        "@geometry": "center"
      },
      "geometry": {
        "type": "Point",
        "coordinates": [
          33.1963845,
          46.7937467
        ]
      },
      "id": "way/182977549"
    },
    {
      "type": "Feature",
      "properties": {
        "@id": "way/184342337",
        "leisure": "pitch",
        "name": "Crystal",
        "sport": "soccer",
        "@geometry": "center"
      },
      "geometry": {
        "type": "Point",
        "coordinates": [
          32.6254063,
          46.6364505
        ]
      },
      "id": "way/184342337"
    },
    {
      "type": "Feature",
      "properties": {
        "@id": "way/184914676",
        "amenity": "school",
        "name": "Школа №2",
        "name:uk": "Школа №2",
        "source": "Bing",
        "@geometry": "center"
      },
      "geometry": {
        "type": "Point",
        "coordinates": [
          33.300552,
          46.2609511
        ]
      },
      "id": "way/184914676"
    },
    {
      "type": "Feature",
      "properties": {
        "@id": "way/184914677",
        "amenity": "hospital",
        "source": "Bing",
        "@geometry": "center"
      },
      "geometry": {
        "type": "Point",
        "coordinates": [
          33.2990768,
          46.2623199
        ]
      },
      "id": "way/184914677"
    },
    {
      "type": "Feature",
      "properties": {
        "@id": "way/184914713",
        "amenity": "school",
        "name": "Школа 1",
        "name:en": "School 1",
        "name:uk": "Школа 1",
        "source": "Bing",
        "@geometry": "center"
      },
      "geometry": {
        "type": "Point",
        "coordinates": [
          33.2874702,
          46.2538413
        ]
      },
      "id": "way/184914713"
    },
    {
      "type": "Feature",
      "properties": {
        "@id": "way/184914715",
        "leisure": "park",
        "source": "Bing",
        "@geometry": "center"
      },
      "geometry": {
        "type": "Point",
        "coordinates": [
          33.2900353,
          46.2539725
        ]
      },
      "id": "way/184914715"
    },
    {
      "type": "Feature",
      "properties": {
        "@id": "way/184914716",
        "leisure": "park",
        "source": "Bing",
        "@geometry": "center"
      },
      "geometry": {
        "type": "Point",
        "coordinates": [
          33.2921428,
          46.2518164
        ]
      },
      "id": "way/184914716"
    },
    {
      "type": "Feature",
      "properties": {
        "@id": "way/184914745",
        "amenity": "kindergarten",
        "source": "Bing",
        "@geometry": "center"
      },